{"type": "FeatureCollection", "features": [{"type": "Feature", "geometry": {"type": "Point", "coordinates": [128.455385, 50.921196]}, "properties": {"region": "Амурская область", "city": "Белогорск", "name": "МАУ ДО \"СШ \"Белогорец\"", "address": "ул. Калининская, д. 57", "girls_total": 20, "phone": "74164122008", "email": "school.football.belogorez@yandex.ru", "geo_quality": "number", "geo_kind": "house"}}, {"type": "Feature", "geometry": {"type": "Point", "coordinates": [130.077203, 49.441767]}, "properties": {"region": "Амурская область", "city": "пгт. Архара", "name": "МАУ ДО \"АСШ\"", "address": "ул. Больничная д. 9", "girls_total": 10, "phone": "8(41648)33-0-16", "email": "dyush-arh@yandex.ru", "geo_quality": "exact", "geo_kind": "house"}}, {"type": "Feature", "geometry": {"type": "Point", "coordinates": [127.534027, 50.270574]}, "properties": {"region": "Амурская область", "city": "Благовещенск", "name": "МАОУ ДО \"СШ № 3 г.Благовещенска\"", "address": "ул.Пионерская, д.51", "girls_total": 8, "phone": "8(416 2) 53-18-61", "email": "sport-school_3@mail.ru", "geo_quality": "exact", "geo_kind": "house"}}, {"type": "Feature", "geometry": {"type": "Point", "coordinates": [132.911208, 48.785343]}, "properties": {"region": "Еврейская автономная область", "city": "Биробиджан", "name": "МБУДО \"Спортивная школа\"", "address": "Биршоссе 2 км ул., стадион «Дружба»", "girls_total": 18, "phone": "89585433747", "email": "birsport@post.eao.ru", "geo_quality": "street", "geo_kind": "street"}}, {"type": "Feature", "geometry": {"type": "Point", "coordinates": [158.65404, 53.034717]}, "properties": {"region": "Камчатский край", "city": "Петропавловск-Камчатский", "name": "КГБУДО СШ по футболу", "address": "683003 г. Петропавловск-Камчатский, ул. Ленинградская, 66", "girls_total": 65, "phone": "8 415 2 42-00-79", "email": "atakasport@yandex.ru", "geo_quality": "near", "geo_kind": "house"}}, {"type": "Feature", "geometry": {"type": "Point", "coordinates": [158.379497, 53.180581]}, "properties": {"region": "Камчатский край", "city": "Елизовское", "name": "МБОУ ЕСШ3", "address": "Ул.Сопочная зд 4", "girls_total": 42, "phone": "89146250410", "email": "Elizovoscoll3@yahoo.com", "geo_quality": "exact", "geo_kind": "house"}}, {"type": "Feature", "geometry": {"type": "Point", "coordinates": [158.643503, 53.024265]}, "properties": {"region": "Камчатский край", "city": "г.Петропавловск-Камчатский", "name": "МАУДО \"Спортивная школа № 2\"", "address": "г.Петропавловск-Камчатский", "girls_total": 21, "phone": "84152297138", "email": "moudod-dussh-2@pkgo.ru", "geo_quality": "other", "geo_kind": "locality"}}, {"type": "Feature", "geometry": {"type": "Point", "coordinates": [150.817057, 59.55378]}, "properties": {"region": "Магаданская область", "city": "Магадан", "name": "МОГАУДО \"Спортивная школа по футболу\"", "address": "Наровчатова 18", "girls_total": 22, "phone": "84132202026, 89181529105", "email": "football-school-49@mail.ru", "geo_quality": "exact", "geo_kind": "house"}}, {"type": "Feature", "geometry": {"type": "Point", "coordinates": [131.911985, 43.092228]}, "properties": {"region": "Приморский край", "city": "Владивосток", "name": "МБУ ДО СШ \"Старт\"", "address": "ул. Олега Кошевого 26а", "girls_total": 11, "phone": "8 (423) 227-43-85", "email": "start.shkola@mail.ru", "geo_quality": "exact", "geo_kind": "house"}}, {"type": "Feature", "geometry": {"type": "Point", "coordinates": [132.733252, 44.743666]}, "properties": {"region": "Приморский край", "city": "Спасск-Дальний", "name": "Муниципальное бюджетное учреждение дополнительного образования\"Спортивная школа \"Атлант\" городского округа Спасск-Дальний", "address": "Приморский край Спасский район с. Луговое Ул. Центральная дом 3", "girls_total": 5, "phone": "89996154376", "email": "sps_dussh@mail.ru", "geo_quality": "exact", "geo_kind": "house"}}, {"type": "Feature", "geometry": {"type": "Point", "coordinates": [132.285046, 43.461485]}, "properties": {"region": "Приморский край", "city": "Артем", "name": "МКУДО СШ \"Темп\"", "address": "Ленина 3а", "girls_total": 4, "phone": "7 423 379-45-32", "email": "sport-temp@bk.ru", "geo_quality": "exact", "geo_kind": "house"}}, {"type": "Feature", "geometry": {"type": "Point", "coordinates": [132.852934, 42.783072]}, "properties": {"region": "Приморский край", "city": "Находка", "name": "МАУ ДО СШ \"Океан\" НГО", "address": "Находкинский проспект 108", "girls_total": 8, "phone": "697106", "email": "dfh.ocean@mail.ru", "geo_quality": "exact", "geo_kind": "house"}}, {"type": "Feature", "geometry": {"type": "Point", "coordinates": [131.9062, 43.152023]}, "properties": {"region": "Приморский край", "city": "Владивосток", "name": "Муниципальное бюджетное учреждение дополнительного образования \"Спортивная школа города Владивостока по футболу\"", "address": "улица Овчинникова, дом 14", "girls_total": 5, "phone": "84232361145", "email": "butsa68@mail.ru", "geo_quality": "exact", "geo_kind": "house"}}, {"type": "Feature", "geometry": {"type": "Point", "coordinates": [132.017546, 43.757484]}, "properties": {"region": "Приморский край", "city": "Уссурийск", "name": "ОО \"Уссурийский футбольный клуб \"Локомотив\"", "address": "у. Комсомольская д.6 кв. 101", "girls_total": 11, "phone": "8-914-735-46-24", "email": "sk_lokomotiv@mail.ru", "geo_quality": "number", "geo_kind": "house"}}, {"type": "Feature", "geometry": {"type": "Point", "coordinates": [132.454496, 43.288285]}, "properties": {"region": "Приморский край", "city": "пгт Смоляниново", "name": "Муниципальное бюджетное учреждение дополнительного образования \"Детско - юношеская спортивная школа\" Шкотовского муниципального округа", "address": "692830, Приморский край, Шкотовский м.о., пгт Смоляниново, ул. Маяковского д.33А", "girls_total": 11, "phone": "84233535414", "email": "dussh_smolyninovo2022@mail.ru", "geo_quality": "exact", "geo_kind": "house"}}, {"type": "Feature", "geometry": {"type": "Point", "coordinates": [131.971813, 43.088692]}, "properties": {"region": "Приморский край", "city": "Владивосток", "name": "ЦО «Вектор»", "address": "ул. Космонавтов, 15", "girls_total": 0, "phone": "7 423 228-94-43\n7 924 242-44-44", "email": null, "geo_quality": "exact", "geo_kind": "house"}}, {"type": "Feature", "geometry": {"type": "Point", "coordinates": [129.712891, 62.034706]}, "properties": {"region": "Республика Саха (Якутия)", "city": "Якутск", "name": "ГБУ ДО РС (Я) \"СШ по футболу\"", "address": "Лермонтова 64", "girls_total": 14, "phone": "8 (4112) 31-95-85", "email": "footballschool14@yandex.ru", "geo_quality": "exact", "geo_kind": "house"}}, {"type": "Feature", "geometry": {"type": "Point", "coordinates": [142.758235, 46.953311]}, "properties": {"region": "Сахалинская область", "city": "Южно-Сахалинск", "name": "ОГАУ ДО \"СШ \"Сахалин\"", "address": "ул. Горького 7/1", "girls_total": 40, "phone": "84242720330", "email": "ms.ogausshs@sakhalin.gov.ru", "geo_quality": "exact", "geo_kind": "house"}}, {"type": "Feature", "geometry": {"type": "Point", "coordinates": [142.940081, 53.589305]}, "properties": {"region": "Сахалинская область", "city": "Оха", "name": "МБУ ДО «СШ» г. Охи", "address": "Советская 1", "girls_total": 8, "phone": "89241832279", "email": "shkolaokha@mail.ru", "geo_quality": "exact", "geo_kind": "house"}}, {"type": "Feature", "geometry": {"type": "Point", "coordinates": [142.658225, 50.847829]}, "properties": {"region": "Сахалинская область", "city": "Тымовское", "name": "МБУ ДО \"Спортивная школа пгт. Тымовское\"", "address": "Кировская, 68А", "girls_total": 21, "phone": "84244721969", "email": "tymovsk.dush@sakhalin.gov.ru", "geo_quality": "number", "geo_kind": "house"}}, {"type": "Feature", "geometry": {"type": "Point", "coordinates": [141.86469, 46.655055]}, "properties": {"region": "Сахалинская область", "city": "Невельск", "name": "Муниципальное бюджетное учреждение дополнительного образования \"Спортивная школа\" Невельского городского округа", "address": "Сахалинская область, город Невельск, улица Яна Фабрициуса 4", "girls_total": 18, "phone": "89140885606", "email": "sportschool@bk.ru", "geo_quality": "exact", "geo_kind": "house"}}, {"type": "Feature", "geometry": {"type": "Point", "coordinates": [143.159854, 51.80512]}, "properties": {"region": "Сахалинская область", "city": "пгт. Ноглики", "name": "МБУ ДО \"СШ\" пгт. Ноглики", "address": "ул. Стадионная, зд. 2", "girls_total": 32, "phone": "1998-11-09 00:00:00", "email": "dssh-nogliki@mail.ru", "geo_quality": "exact", "geo_kind": "house"}}, {"type": "Feature", "geometry": {"type": "Point", "coordinates": [135.113347, 48.378285]}, "properties": {"region": "Хабаровский край", "city": "Хабаровск", "name": "ЦПЮФ \"СКА-Хабаровск\"", "address": "Cтадион им. В.И.Ленина, южная трибуна,оф.18", "girls_total": 44, "phone": "84212917899", "email": "fcska-khv@yandex.ru", "geo_quality": "street", "geo_kind": "street"}}, {"type": "Feature", "geometry": {"type": "Point", "coordinates": [135.181314, 48.45741]}, "properties": {"region": "Хабаровский край", "city": "Хабаровск", "name": "Муниципальное автономное учреждение дополнительного образования спортивная школа \"Заря\"", "address": "Хабаровский край, город Хабаровск, ул. Воровского,17", "girls_total": 20, "phone": "(4212) 78-70-32", "email": "ya.dusch8@yandex.ru", "geo_quality": "exact", "geo_kind": "house"}}, {"type": "Feature", "geometry": {"type": "Point", "coordinates": [135.075573, 48.468779]}, "properties": {"region": "Хабаровский край", "city": "Хабаровск", "name": "Женский футбольный клуб \"Арсенал\"", "address": "Ул. Гамарника, 4-79", "girls_total": 21, "phone": "8-962-503-86-47", "email": "samsergey10@rambler.ru", "geo_quality": "number", "geo_kind": "house"}}, {"type": "Feature", "geometry": {"type": "Point", "coordinates": [134.953133, 47.885447]}, "properties": {"region": "Хабаровский край", "city": "р.п. Хор", "name": "Икар", "address": "Хабаровский край, район Лазо, р.п. Хор, ул. Безымянная, д. 6", "girls_total": 12, "phone": "89141687778", "email": "Dushikar@yandex.ru", "geo_quality": "near", "geo_kind": "house"}}, {"type": "Feature", "geometry": {"type": "Point", "coordinates": [134.754317, 47.532584]}, "properties": {"region": "Хабаровский край", "city": "Вяземский", "name": "МБУ ДО СШ Юниор", "address": "Коммунистическая 10", "girls_total": 21, "phone": "84215331265", "email": "vyzducsh@yandex.ru", "geo_quality": "exact", "geo_kind": "house"}}, {"type": "Feature", "geometry": {"type": "Point", "coordinates": [135.053079, 47.968723]}, "properties": {"region": "Хабаровский край", "city": "Р.п. Переяславка", "name": "МБУ ДО спортивная школа р.п. Переяславка", "address": "Пер. Клинский, 13", "girls_total": 5, "phone": "7 (909) 871-21-92", "email": "duslhazo@mail.ru", "geo_quality": "other", "geo_kind": "locality"}}, {"type": "Feature", "geometry": {"type": "Point", "coordinates": [40.39139, 56.123172]}, "properties": {"region": "Владимирская область", "city": "Владимир", "name": "ГБУ ДО ВО СШ ПО футболу", "address": "Г. Владимир, ул. Дворянская д. 16Б", "girls_total": 73, "phone": "8 (492) 247-48-35", "email": "school_football33@mail.ru", "geo_quality": "exact", "geo_kind": "house"}}, {"type": "Feature", "geometry": {"type": "Point", "coordinates": [40.374304, 56.125003]}, "properties": {"region": "Владимирская область", "city": "Владимир", "name": "АНО ДЮСШ по футболу \"СИРИУС\"", "address": "9 января, д.3", "girls_total": 25, "phone": "89046560451", "email": "wfc.sirius@mail.ru", "geo_quality": "exact", "geo_kind": "house"}}, {"type": "Feature", "geometry": {"type": "Point", "coordinates": [40.650177, 55.618684]}, "properties": {"region": "Владимирская область", "city": "Владимирская обл. Гусь Хрустальный район пос. Анопино", "name": "Анопино", "address": "Владимирская обл. Гусь-Хрустальный р-он пос. Анопино", "girls_total": 20, "phone": "89005831348", "email": "Не знаю", "geo_quality": "other", "geo_kind": "railway_station"}}, {"type": "Feature", "geometry": {"type": "Point", "coordinates": [42.02892, 55.575312]}, "properties": {"region": "Владимирская область", "city": "Муром", "name": "Юниор Муром", "address": "Московская 87", "girls_total": 30, "phone": "89046585539", "email": "Tat-pushkova@yandex.ru", "geo_quality": "exact", "geo_kind": "house"}}, {"type": "Feature", "geometry": {"type": "Point", "coordinates": [40.327987, 55.990881]}, "properties": {"region": "Владимирская область", "city": "Радужный", "name": "МБОУ ДО \"ДЮСШ\" ЗАТО г.Радужный Владимирской области", "address": "Владимирская область, г. Радужный, квартал 9, д.3ал 9, дом 3", "girls_total": 25, "phone": "84925432382", "email": "duchradyga@mail.ru", "geo_quality": "number", "geo_kind": "house"}}, {"type": "Feature", "geometry": {"type": "Point", "coordinates": [40.406635, 56.129057]}, "properties": {"region": "Владимирская область", "city": "Владимир", "name": "Владимирский стандарт (Влада)", "address": "Нет конкретного, живем за счет аренды залов", "girls_total": 19, "phone": "7-900-589-90-94", "email": "kozlova.dasha01@mail.ru", "geo_quality": "other", "geo_kind": "locality"}}, {"type": "Feature", "geometry": {"type": "Point", "coordinates": [42.058358, 55.569535]}, "properties": {"region": "Владимирская область", "city": "Муром", "name": "АНО ДО СШ СК МУРОМ", "address": "г. Муром, ул. Ленина д. 95", "girls_total": 21, "phone": "8(49234)3-36-10", "email": "sport49234@yandex.ru", "geo_quality": "exact", "geo_kind": "house"}}, {"type": "Feature", "geometry": {"type": "Point", "coordinates": [40.65386, 55.62358]}, "properties": {"region": "Владимирская область", "city": "Гусь-Хрустальный", "name": "МБУДО \"СШ по футболу \"Грань\"", "address": "ул. Добролюбова, д.23", "girls_total": 47, "phone": "8(49241) 3-31-90", "email": "fcgran@mail.ru", "geo_quality": "exact", "geo_kind": "house"}}, {"type": "Feature", "geometry": {"type": "Point", "coordinates": [42.693135, 56.207313]}, "properties": {"region": "Владимирская область", "city": "Гороховец", "name": "МБУ ФКС \"РДЮФОК\"", "address": "ул. Братьев Бесединых, 26", "girls_total": 39, "phone": "8(49238)2-13-46", "email": "mufksrdyufok@mail.ru", "geo_quality": "exact", "geo_kind": "house"}}, {"type": "Feature", "geometry": {"type": "Point", "coordinates": [41.297449, 56.275029]}, "properties": {"region": "Владимирская область", "city": "п. Мелехово Коврвский район", "name": "Муниципальное автономное учреждение дополнительного  образования  спортивная школа\"Дворец спорта \" Ковровского района", "address": "Владимирская область, КОвровский район, п. МЕлехово, ул. Первомайская, д. 110", "girls_total": 2, "phone": "88423271193", "email": "dvoretz.sporta@yandex.ru", "geo_quality": "exact", "geo_kind": "house"}}, {"type": "Feature", "geometry": {"type": "Point", "coordinates": [40.44272, 56.109571]}, "properties": {"region": "Владимирская область", "city": "Владимир", "name": "Мотор", "address": "Школьная улица, 1А, микрорайон Коммунар, Владимир", "girls_total": 30, "phone": "7 (4922) 77-75-00", "email": "sch46@vladedu.ru", "geo_quality": "exact", "geo_kind": "house"}}, {"type": "Feature", "geometry": {"type": "Point", "coordinates": [40.48327, 56.171272]}, "properties": {"region": "Владимирская область", "city": "Владимир", "name": "Смена Владимир", "address": "Добросельская 205 А", "girls_total": 18, "phone": "7-906-561-30-61", "email": "нет", "geo_quality": "exact", "geo_kind": "house"}}, {"type": "Feature", "geometry": {"type": "Point", "coordinates": [39.880366, 59.227947]}, "properties": {"region": "Вологодская область", "city": "Вологда", "name": "Муниципальное автономное учреждение  дополнительного образования  «Спортивная школа олимпийского резерва по футболу Динамо-Вологда»", "address": "Варенцовой 1", "girls_total": 70, "phone": "88172544919", "email": "fs35@yandex.ru", "geo_quality": "exact", "geo_kind": "house"}}, {"type": "Feature", "geometry": {"type": "Point", "coordinates": [39.834839, 59.211524]}, "properties": {"region": "Вологодская область", "city": "г. Вологда", "name": "АУ ДО ВО \"СШОР \"Витязь\"", "address": "ул. Гагарина, д. 44А", "girls_total": 34, "phone": "33-80-90", "email": "sportpro@shor-vityaz35.ru", "geo_quality": "exact", "geo_kind": "house"}}, {"type": "Feature", "geometry": {"type": "Point", "coordinates": [40.244974, 58.865823]}, "properties": {"region": "Вологодская область", "city": "Грязовец", "name": "СП \"Спортивная школа\" БУ \"Центр развития физической культуры и спорта\" Грязовецкого муниципального округа", "address": "162002, Вологодская обл., г. Грязовец, ул. Революционная, д. 104", "girls_total": 25, "phone": "881755 2 42 82", "email": "sportkom.gr@mail.ru", "geo_quality": "exact", "geo_kind": "house"}}, {"type": "Feature", "geometry": {"type": "Point", "coordinates": [39.981408, 58.968279]}, "properties": {"region": "Вологодская область", "city": "д.Юрово", "name": "МБОУ \"Юровский центр образования\"", "address": "Грязовецуий район, д.Юрово, ул.Школьная,12", "girls_total": 44, "phone": "88175541251", "email": "secretar-12015@obr.edu35.ru", "geo_quality": "exact", "geo_kind": "house"}}, {"type": "Feature", "geometry": {"type": "Point", "coordinates": [37.107383, 59.207715]}, "properties": {"region": "Вологодская область", "city": "Кадуй", "name": "ЖФК \"Арсенал\"", "address": "Вологодская обл., рп Кадуй, ул. Строителей, д. 6", "girls_total": 15, "phone": "89055859479", "email": "valeriekim08@yandex.ru", "geo_quality": "exact", "geo_kind": "house"}}, {"type": "Feature", "geometry": {"type": "Point", "coordinates": [38.016281, 59.121388]}, "properties": {"region": "Вологодская область", "city": "Череповец", "name": "ЖФК \"Атланта\" Череповец", "address": "ЗЗаягорбский, ул. Космонавта Беляева, д. 66а", "girls_total": 53, "phone": "79315142454", "email": "voff35@mail.ru", "geo_quality": "exact", "geo_kind": "house"}}, {"type": "Feature", "geometry": {"type": "Point", "coordinates": [40.951113, 57.019599]}, "properties": {"region": "Ивановская область", "city": "Иваново", "name": "МБУ ДО СШ ТЕКСТИЛЬЩИК", "address": "Ул. Ермака, 49", "girls_total": 24, "phone": "±79203701181", "email": "stadtextil@mail.ru", "geo_quality": "exact", "geo_kind": "house"}}, {"type": "Feature", "geometry": {"type": "Point", "coordinates": [41.909804, 57.193347]}, "properties": {"region": "Ивановская область", "city": "Вичуга", "name": "МБУ \"Текстильщик\"", "address": "Ленинградская,86", "girls_total": 20, "phone": "89066177413", "email": "ts14m@mail.ru", "geo_quality": "exact", "geo_kind": "house"}}, {"type": "Feature", "geometry": {"type": "Point", "coordinates": [41.12067, 57.267117]}, "properties": {"region": "Ивановская область", "city": "Фурманов", "name": "Восход", "address": "Тимирязева 32 Центр Детского Творчества", "girls_total": 15, "phone": "8(49341) 2-57-12", "email": "cdt-f@mail.ru", "geo_quality": "exact", "geo_kind": "house"}}, {"type": "Feature", "geometry": {"type": "Point", "coordinates": [40.984638, 57.029706]}, "properties": {"region": "Ивановская область", "city": "Иваново", "name": "ЖФК Иваново", "address": "Иваново, Спортивная, 19/1", "girls_total": 30, "phone": "79806911509", "email": "wfc-iv@mail.ru", "geo_quality": "number", "geo_kind": "house"}}, {"type": "Feature", "geometry": {"type": "Point", "coordinates": [40.120629, 56.566532]}, "properties": {"region": "Ивановская область", "city": "Гаврилов Посад", "name": "МБУДО \"Гаврилово-Посадский ДЮЦ\"", "address": "Ивановская область, город Гаврилов Посад, ул. Советская, дом 20", "girls_total": 15, "phone": "84935522035", "email": "dfooc@yandex.ru", "geo_quality": "other", "geo_kind": "railway_station"}}, {"type": "Feature", "geometry": {"type": "Point", "coordinates": [41.728353, 57.103721]}, "properties": {"region": "Ивановская область", "city": "Родники", "name": "МУ \"Родниковский МСЦ\"", "address": "Родники, пер. Школьный, 7", "girls_total": 30, "phone": "79050582919", "email": "msc37@mail.ru", "geo_quality": "exact", "geo_kind": "house"}}, {"type": "Feature", "geometry": {"type": "Point", "coordinates": [51.152803, 58.407668]}, "properties": {"region": "Кировская область", "city": "Зуевка", "name": "Мку до СШ г.Зуевка", "address": "Ул.Восточная 16 а", "girls_total": 14, "phone": "88333725208", "email": "z.s.school@mail.ru", "geo_quality": "exact", "geo_kind": "house"}}, {"type": "Feature", "geometry": {"type": "Point", "coordinates": [49.67617, 58.59229]}, "properties": {"region": "Кировская область", "city": "Киров", "name": "МАУ ДО СШ \"Динамо\" города Кирова", "address": "610000, Кировская область, г. Киров, ул. Красноармейская, д. 15", "girls_total": 65, "phone": "8(8332) 711-888", "email": "uosport5@mail.ru", "geo_quality": "exact", "geo_kind": "house"}}, {"type": "Feature", "geometry": {"type": "Point", "coordinates": [48.949379, 57.578364]}, "properties": {"region": "Кировская область", "city": "Советск", "name": "МБУ ДО СШ Советского района", "address": "Кировская область, г.Советск, ул.Энгельса, д.79", "girls_total": 30, "phone": "88337522504", "email": "dyssh.sovetsk@yandex.ru", "geo_quality": "near", "geo_kind": "house"}}, {"type": "Feature", "geometry": {"type": "Point", "coordinates": [49.668023, 58.603595]}, "properties": {"region": "Кировская область", "city": "Киров", "name": "ЖФК \"ENERGY\"", "address": "Киров", "girls_total": 20, "phone": "89229557303", "email": "meteleva_a@mail.ru", "geo_quality": "other", "geo_kind": "locality"}}, {"type": "Feature", "geometry": {"type": "Point", "coordinates": [49.612264, 58.63571]}, "properties": {"region": "Кировская область", "city": "Киров", "name": "КОГАУ ДО \"ВятСШОР\"", "address": "ул. Ленинградская, 1б", "girls_total": 38, "phone": "41-97-68", "email": "sport43@sport43.kirov.ru", "geo_quality": "exact", "geo_kind": "house"}}, {"type": "Feature", "geometry": {"type": "Point", "coordinates": [49.689097, 58.585484]}, "properties": {"region": "Кировская область", "city": "Киров", "name": "Футбольная академия \"Вектор\"", "address": "ул. Блюхера, 2/3", "girls_total": 81, "phone": "8-919-503-71-21", "email": "championkirov@gmail.com", "geo_quality": "exact", "geo_kind": "house"}}, {"type": "Feature", "geometry": {"type": "Point", "coordinates": [49.668023, 58.603595]}, "properties": {"region": "Кировская область", "city": "Киров", "name": "ЖФК «Лапули в бутсах»", "address": null, "girls_total": 0, "phone": null, "email": null, "geo_quality": "other", "geo_kind": "locality"}}, {"type": "Feature", "geometry": {"type": "Point", "coordinates": [49.668023, 58.603595]}, "properties": {"region": "Кировская область", "city": "Киров", "name": "Футбольная школа «Юниор»", "address": null, "girls_total": 0, "phone": null, "email": null, "geo_quality": "other", "geo_kind": "locality"}}, {"type": "Feature", "geometry": {"type": "Point", "coordinates": [41.013779, 57.740277]}, "properties": {"region": "Костромская область", "city": "Кострома", "name": "Государственное бюджетное учреждение дополнительного образования \"Спортивная школа имени Г.А. Ярцева\"", "address": "г.Кострома м\\н Лавыдовский-3, д. 19", "girls_total": 34, "phone": "84942414131", "email": "dush-3.14@mail.ru", "geo_quality": "exact", "geo_kind": "house"}}, {"type": "Feature", "geometry": {"type": "Point", "coordinates": [41.00821, 57.740959]}, "properties": {"region": "Костромская область", "city": "Кострома", "name": "ГБУ ДО КО \"СШОР им. А. В. Голубева\"", "address": "г. Кострома, мк-р Давыдовский-3, д. 44", "girls_total": 89, "phone": "657254", "email": "yrogai@yandex.ru", "geo_quality": "exact", "geo_kind": "house"}}, {"type": "Feature", "geometry": {"type": "Point", "coordinates": [33.700487, 57.48302]}, "properties": {"region": "Тверская область", "city": "Фировский МО", "name": "МКУ ДО Фировская СШ", "address": "п. Фирово, ул. Советская 12", "girls_total": 43, "phone": "89301569384", "email": "nefedov.1968@mail.ru", "geo_quality": "near", "geo_kind": "house"}}, {"type": "Feature", "geometry": {"type": "Point", "coordinates": [34.546879, 57.567051]}, "properties": {"region": "Тверская область", "city": "Вышний Волочек", "name": "МБУ ДО \"СШ им. Ф.Ф. Богдановского\"", "address": "ул.Коммунальная д.6", "girls_total": 8, "phone": "84823361458", "email": "dushb2012@yandex.ru", "geo_quality": "exact", "geo_kind": "house"}}, {"type": "Feature", "geometry": {"type": "Point", "coordinates": [35.934956, 56.854478]}, "properties": {"region": "Тверская область", "city": "Тверь", "name": "ГОСУДАРСТВЕННОЕ БЮДЖЕТНОЕ УЧРЕЖДЕНИЕ ДОПОЛНИТЕЛЬНОГО ОБРАЗОВАНИЯ ТВЕРСКОЙ ОБЛАСТИ «СПОРТИВНАЯ ШКОЛА ОЛИМПИЙСКОГО РЕЗЕРВА ПО ФУТБОЛУ»", "address": "улица Вокзальная, дом 7", "girls_total": 37, "phone": "8(4822)34-35-05", "email": "sport_school_69@mail.ru", "geo_quality": "exact", "geo_kind": "house"}}, {"type": "Feature", "geometry": {"type": "Point", "coordinates": [35.864438, 57.799759]}, "properties": {"region": "Тверская область", "city": "Максатиха", "name": "Максатихинская сш", "address": "Максатиха ул.бр.даниловых д.23", "girls_total": 33, "phone": "89108435603", "email": "Vjkjuf64mail.ru", "geo_quality": "exact", "geo_kind": "house"}}, {"type": "Feature", "geometry": {"type": "Point", "coordinates": [37.061488, 56.994327]}, "properties": {"region": "Тверская область", "city": "Кимры", "name": "Феникс", "address": "Кимрский м.о., д. Малое василево, пл. Центральная, 4", "girls_total": 12, "phone": "9201884697", "email": "gusevserv@rambler.ru", "geo_quality": "other", "geo_kind": "locality"}}, {"type": "Feature", "geometry": {"type": "Point", "coordinates": [36.430251, 56.549001]}, "properties": {"region": "Тверская область", "city": "пгт.Новозавидовский", "name": "ДЮСШ \"Завидово\"", "address": "пер. Первомайский,зд.1", "girls_total": 12, "phone": "7(482)422-23-84", "email": "mou1novozavidovo@rambler.ru", "geo_quality": "exact", "geo_kind": "house"}}, {"type": "Feature", "geometry": {"type": "Point", "coordinates": [37.356378, 56.87166]}, "properties": {"region": "Тверская область", "city": "Кимры", "name": "Футбольный клуб звезда", "address": "Тверская область город Кимры ул. Володарского 6/12", "girls_total": 3, "phone": "79066547526", "email": "maksimkolobok@yandex.ru", "geo_quality": "exact", "geo_kind": "house"}}, {"type": "Feature", "geometry": {"type": "Point", "coordinates": [35.899607, 56.848055]}, "properties": {"region": "Тверская область", "city": "Тверь", "name": "ЖФК \"Пантера\"", "address": "улица Дарвина, 3, Тверь", "girls_total": 14, "phone": "7 (952) 062-07-76", "email": "http://vssfootball.ru/", "geo_quality": "exact", "geo_kind": "house"}}, {"type": "Feature", "geometry": {"type": "Point", "coordinates": [39.867502, 57.627759]}, "properties": {"region": "Ярославская область", "city": "Ярославль", "name": "ЧУ ДО СШ ФК Шинник", "address": "Пл. Труда, 3", "girls_total": 100, "phone": "8-4852-74-43-99", "email": "cpufshinnik@yandex.ru", "geo_quality": "exact", "geo_kind": "house"}}, {"type": "Feature", "geometry": {"type": "Point", "coordinates": [38.805316, 58.062716]}, "properties": {"region": "Ярославская область", "city": "Рыбинск", "name": "Муниципальное автономное учреждение дополнительного образования спортивная школа №6 по футболу", "address": "Ярославская область, город Рыбинск , улица Баженова 11а.", "girls_total": 20, "phone": "84855298766", "email": "sdushor6futbol@mail.ru", "geo_quality": "exact", "geo_kind": "house"}}, {"type": "Feature", "geometry": {"type": "Point", "coordinates": [38.866671, 56.739139]}, "properties": {"region": "Ярославская область", "city": "Переславль-Залесский", "name": "МУ ДО ДЮСШ", "address": "Ул. Свободы 40", "girls_total": 8, "phone": "89012784299", "email": "dush-1.pereslavl@yandex.ru", "geo_quality": "exact", "geo_kind": "house"}}, {"type": "Feature", "geometry": {"type": "Point", "coordinates": [39.138097, 57.253706]}, "properties": {"region": "Ярославская область", "city": "Поселок Борисоглебский", "name": "Центр детского творчества", "address": "Ул.Октябрьская д.47", "girls_total": 11, "phone": "89605296581", "email": "mtk-avv@mail.ru", "geo_quality": "near", "geo_kind": "house"}}, {"type": "Feature", "geometry": {"type": "Point", "coordinates": [39.28878, 57.207321]}, "properties": {"region": "Ярославская область", "city": "д. Судино", "name": "МОУ ДО ДЮСШ №2 Ростовского МР", "address": "Ростовский район, д. Судино, д.27", "girls_total": 28, "phone": "8(48536)2-24-48", "email": "ros2.rostov@yarregion.ru", "geo_quality": "exact", "geo_kind": "house"}}, {"type": "Feature", "geometry": {"type": "Point", "coordinates": [39.846104, 57.587035]}, "properties": {"region": "Ярославская область", "city": "Ярославль", "name": "Му до сш 13", "address": "Гагарина 21а", "girls_total": 59, "phone": "7 (4852) 98-68-35", "email": "Dushor13@yandex.ru", "geo_quality": "exact", "geo_kind": "house"}}, {"type": "Feature", "geometry": {"type": "Point", "coordinates": [39.869586, 57.30292]}, "properties": {"region": "Ярославская область", "city": "Гаврилов-Ям", "name": "Гаврилов-Ямская детско-юношеская спортивная школа", "address": "Молодёжная ул., 7, корп. 1", "girls_total": 11, "phone": "8(48534)2-46-84", "email": "dush.gavyam@yarregion.ru", "geo_quality": "number", "geo_kind": "house"}}, {"type": "Feature", "geometry": {"type": "Point", "coordinates": [39.863944, 57.607248]}, "properties": {"region": "Ярославская область", "city": "Ярославль", "name": "ЖФК «Сиеста»", "address": "Ярославль Наумова 67/2", "girls_total": 20, "phone": "79611621333", "email": "Siestafit@gmail.com", "geo_quality": "exact", "geo_kind": "house"}}, {"type": "Feature", "geometry": {"type": "Point", "coordinates": [38.020098, 55.910483]}, "properties": {"region": "Московская область", "city": "Щёлково", "name": "ГБУ ДО МО \"СШОР по игровым видам спорта\"", "address": "Московская бласть, г.о. Щёлково, ул. Заводская, д. 3В", "girls_total": 58, "phone": "7 (495) 274-02-90", "email": "mfks_sshorigr@mosreg.ru", "geo_quality": "exact", "geo_kind": "house"}}, {"type": "Feature", "geometry": {"type": "Point", "coordinates": [37.263663, 55.679138]}, "properties": {"region": "Московская область", "city": "Одинцово", "name": "МАУ ФСЦ КУБИНКА", "address": "Где предоставят площадку для тренировок", "girls_total": 12, "phone": "89772720213", "email": "Lehasomonov@yandex.ru", "geo_quality": "other", "geo_kind": "locality"}}, {"type": "Feature", "geometry": {"type": "Point", "coordinates": [36.035855, 55.505312]}, "properties": {"region": "Московская область", "city": "Можайск", "name": "Му мдс багратион", "address": "Можайск , ул, мира 15", "girls_total": 43, "phone": "84963821437", "email": "016-16@mail.ru", "geo_quality": "exact", "geo_kind": "house"}}, {"type": "Feature", "geometry": {"type": "Point", "coordinates": [38.469148, 55.883479]}, "properties": {"region": "Московская область", "city": "Ногинск", "name": "МБУ ДО БГО \"СШОР\"", "address": "ул. Санаторная 3", "girls_total": 63, "phone": "7(496) 510 10 55", "email": "sport@sshor-bgo.ru", "geo_quality": "exact", "geo_kind": "house"}}, {"type": "Feature", "geometry": {"type": "Point", "coordinates": [38.112481, 55.612945]}, "properties": {"region": "Московская область", "city": "рп. Ильинский", "name": "Муниципальное бюджетное учреждение дополнительного образования \"Ильинская спортивная школа \"Авангард\"", "address": "рп. Ильинский, ул. Ленинская, 66А", "girls_total": 80, "phone": "84964691752", "email": "ikdyussh@mail.ru", "geo_quality": "exact", "geo_kind": "house"}}, {"type": "Feature", "geometry": {"type": "Point", "coordinates": [38.07883, 54.883063]}, "properties": {"region": "Московская область", "city": "Ступино", "name": "МБУДО СШ Ока", "address": "Ул. Чайковского, 3/10", "girls_total": 34, "phone": "8 (496) 643-18-22", "email": "sport_oka_mz@mail.ru", "geo_quality": "exact", "geo_kind": "house"}}, {"type": "Feature", "geometry": {"type": "Point", "coordinates": [38.146393, 56.325025]}, "properties": {"region": "Московская область", "city": "Сергиев Посад", "name": "МБУ ДО СШ \"Сергиев Посад\"", "address": "г. Сергиев Посад, ул. Матросова, 2А", "girls_total": 83, "phone": "8(496)5510961", "email": "ssh-sp@mail.ru", "geo_quality": "exact", "geo_kind": "house"}}, {"type": "Feature", "geometry": {"type": "Point", "coordinates": [39.038348, 55.363749]}, "properties": {"region": "Московская область", "city": "Егорьевск", "name": "Государственное бюджетное профессиональное образовательное учреждение Московской области «Спортивное училище (техникум) № 5» город Егорьевск", "address": "Московская область, г. Егорьевск, ул. Южная, д. 2.", "girls_total": 66, "phone": "7 (49640) 4-79-14", "email": "uor5.master-saturn@mail.ru", "geo_quality": "exact", "geo_kind": "house"}}, {"type": "Feature", "geometry": {"type": "Point", "coordinates": [37.565793, 55.443327]}, "properties": {"region": "Московская область", "city": "Подольск", "name": "МУДО СШ по футболу \"Витязь\"", "address": "142116, Московская область, Г.о. Подольск, ул. Ульяновых, д. 23.", "girls_total": 50, "phone": "84967663836", "email": "vityaz_dyusshpofutbolu@mail.ru", "geo_quality": "exact", "geo_kind": "house"}}, {"type": "Feature", "geometry": {"type": "Point", "coordinates": [37.451645, 56.008319]}, "properties": {"region": "Московская область", "city": "Лобня", "name": "Зенит-Чемпионика Лобня", "address": "г Лобня ул Ленина д 65", "girls_total": 5, "phone": "8-916-064-25-81", "email": "alexandr.solsky@championika.ru", "geo_quality": "exact", "geo_kind": "house"}}, {"type": "Feature", "geometry": {"type": "Point", "coordinates": [37.924913, 55.798449]}, "properties": {"region": "Московская область", "city": "Балашиха", "name": "МБУ ДО СШОР МЕТЕОР", "address": "г. Балашиха, ул. Победы, вл. 1", "girls_total": 34, "phone": "8-495-523-43-35", "email": "Meteor-football@yandex.ru", "geo_quality": "exact", "geo_kind": "house"}}, {"type": "Feature", "geometry": {"type": "Point", "coordinates": [38.845551, 55.052716]}, "properties": {"region": "Московская область", "city": "Коломна", "name": "ЖФК Авангард", "address": "Московская область, г.о. Коломна, ул. Советская дом 58кв. 32", "girls_total": 53, "phone": "8(915) 2101312", "email": "domin4@mail.ru", "geo_quality": "exact", "geo_kind": "other"}}, {"type": "Feature", "geometry": {"type": "Point", "coordinates": [37.849508, 55.924779]}, "properties": {"region": "Московская область", "city": "Королёв", "name": "МБОУ Гимназия 17", "address": "Ул. Сакко и Ванцетти, д. 28", "girls_total": 35, "phone": "8-916-345-36-36", "email": "school17_korolev@mail.ru", "geo_quality": "exact", "geo_kind": "house"}}, {"type": "Feature", "geometry": {"type": "Point", "coordinates": [38.269031, 55.832419]}, "properties": {"region": "Московская область", "city": "Обухово", "name": "Фск Обухово", "address": "П. Обухово ул. Советская 25", "girls_total": 23, "phone": "89660625887", "email": "Fsk. Obyxovo. @mail.ru", "geo_quality": "exact", "geo_kind": "house"}}, {"type": "Feature", "geometry": {"type": "Point", "coordinates": [37.328153, 55.828683]}, "properties": {"region": "Московская область", "city": "Красногорск", "name": "МБУДО КСШОР «Зоркий»", "address": "Пионерская 31", "girls_total": 74, "phone": "79253570461", "email": "e-verbiczkaya@mail.ru", "geo_quality": "exact", "geo_kind": "house"}}, {"type": "Feature", "geometry": {"type": "Point", "coordinates": [37.408373, 55.89183]}, "properties": {"region": "Московская область", "city": "Г.О. Химки", "name": "\"Спортивная школа олимпийского резерва по футболу", "address": "М.О. г. Химки, ул. Машинцева д.2", "girls_total": 17, "phone": "7(945) 793-09-96", "email": "schoolkhimki@yandex.ru", "geo_quality": "exact", "geo_kind": "house"}}, {"type": "Feature", "geometry": {"type": "Point", "coordinates": [37.126095, 55.856553]}, "properties": {"region": "Московская область", "city": "Истра", "name": "МБУ ДО Истринская СШ им. Н.Л.Федорович", "address": "г.о. Истра, г. Дедовск, ул. Войкова, д. 6а", "girls_total": 47, "phone": "7 (498) 317-75-36", "email": "idssh6@yandex.ru", "geo_quality": "exact", "geo_kind": "house"}}, {"type": "Feature", "geometry": {"type": "Point", "coordinates": [37.204087, 56.749806]}, "properties": {"region": "Московская область", "city": "Дубна", "name": "ФШ Динамо Дубна", "address": "141980 Московская область ул. Мичурина д.7/29 кв.38", "girls_total": 18, "phone": "89651490220", "email": "d.zhuravlev@dubna.fcdm.school", "geo_quality": "exact", "geo_kind": "other"}}, {"type": "Feature", "geometry": {"type": "Point", "coordinates": [37.849814, 55.757769]}, "properties": {"region": "Московская область", "city": "Реутов", "name": "МАУ ДО \"СШ \"Приалит\"", "address": "МО, г.о. Реутов, г. Реутов, ул. Новая, д.1а", "girls_total": 17, "phone": "8-967-041-42-09", "email": "prialitreutov@mail.ru", "geo_quality": "exact", "geo_kind": "house"}}, {"type": "Feature", "geometry": {"type": "Point", "coordinates": [37.538988, 55.37501]}, "properties": {"region": "Московская область", "city": "г.о.Подольск,", "name": "МУДО СШ \"Весна\"", "address": "мкр.Климовск", "girls_total": 85, "phone": "84967 62-94-76", "email": "sportshkola-klimovsk@yandex.ru", "geo_quality": "other", "geo_kind": "district"}}, {"type": "Feature", "geometry": {"type": "Point", "coordinates": [37.825622, 55.917147]}, "properties": {"region": "Московская область", "city": "Королёв", "name": "ЖЛФК Энергия", "address": "Октябрьский бул., 10, Королёв", "girls_total": 30, "phone": "7 925 216-11-68", "email": "Krugovorot.energy@yandex.ru", "geo_quality": "exact", "geo_kind": "house"}}, {"type": "Feature", "geometry": {"type": "Point", "coordinates": [37.845035, 55.6273]}, "properties": {"region": "Московская область", "city": "Дзержинский", "name": "МБУДО СШ \"Орбита\"", "address": "Спортивная 3б", "girls_total": 33, "phone": "8 (495) 551-15-18", "email": "ssorbita@yandex.ru", "geo_quality": "exact", "geo_kind": "house"}}, {"type": "Feature", "geometry": {"type": "Point", "coordinates": [37.768184, 55.426253]}, "properties": {"region": "Московская область", "city": "Домодедово", "name": "МБУ ДО \"СШОР \"Олимп\"", "address": "ул. Зеленая, стр. 72 а, микрорайон Западный, г. Домодедово, Московская область, 142003,", "girls_total": 4, "phone": "8(496)79 4-30-11", "email": "dmdd_mbu_olimp@mosreg.ru", "geo_quality": "exact", "geo_kind": "house"}}, {"type": "Feature", "geometry": {"type": "Point", "coordinates": [38.253077, 55.416734]}, "properties": {"region": "Московская область", "city": "Бронницы", "name": "МАУ ДО СШОР им.А.Сыроежкина", "address": "Московская область, г.о.Бронницы, г.Бронницы, пер.Комсомольский, 60", "girls_total": 2, "phone": "84964667638", "email": "sduchor_1@mail.ru", "geo_quality": "exact", "geo_kind": "house"}}, {"type": "Feature", "geometry": {"type": "Point", "coordinates": [38.876355, 55.601549]}, "properties": {"region": "Московская область", "city": "д. Давыдово", "name": "МУ ДО \"СШ \"Легион\"", "address": "142641, Российская Федерация, Московская область, Орехово-Зуевский городской округ, деревня Давыдово, микрорайон 2-й, дом 9, корпус А, помещение 124", "girls_total": 4, "phone": "8(4964)173900", "email": "sh.legion@yandex.ru", "geo_quality": "exact", "geo_kind": "house"}}, {"type": "Feature", "geometry": {"type": "Point", "coordinates": [38.009391, 55.9191]}, "properties": {"region": "Московская область", "city": "Щёлково", "name": "МБУ ДО СШ \"Старт\" ГОЩ", "address": "1-ый Советский переулок д.32Б", "girls_total": 32, "phone": "84962585083", "email": "sports2012@mail.ru", "geo_quality": "exact", "geo_kind": "house"}}, {"type": "Feature", "geometry": {"type": "Point", "coordinates": [38.379416, 56.00099]}, "properties": {"region": "Московская область", "city": "Черноголовка", "name": "МАУДО СШ \"Черноголовка\"", "address": "бульвар арх. Толмачева, д. 3", "girls_total": 10, "phone": "7 (49652) 2 57 15", "email": "sport142432@mail.ru", "geo_quality": "exact", "geo_kind": "house"}}, {"type": "Feature", "geometry": {"type": "Point", "coordinates": [36.205582, 55.7046]}, "properties": {"region": "Московская область", "city": "Руза", "name": "МБУ ДО \"Спортивная школа Руза\" РГО МО", "address": "Московская область г. Руза ул. Социалистическая д. 63", "girls_total": 4, "phone": "7-496-2762025", "email": "dussh-ruza@yandex.ru", "geo_quality": "exact", "geo_kind": "house"}}, {"type": "Feature", "geometry": {"type": "Point", "coordinates": [37.521345, 55.932021]}, "properties": {"region": "Московская область", "city": "г.о. Долгопрудный", "name": "Муниципальное бюджетное учреждение дополнительного образования спортивная школа городского округа Долгопрудный", "address": "141701, Московская область, г. Долгопрудный, ул. Институтский переулок, д. 1", "girls_total": 20, "phone": "8-495-408-77-37", "email": "dolg_dop01@mosreg.ru", "geo_quality": "exact", "geo_kind": "house"}}, {"type": "Feature", "geometry": {"type": "Point", "coordinates": [36.954436, 55.67157]}, "properties": {"region": "Московская область", "city": "Одинцовский городской округ", "name": "МБУ СШ Лидер", "address": "Одинцовский район, д. Хлюпино, ул. Заводская стр. 30", "girls_total": 25, "phone": "8 (498) 697 81 41", "email": "arion.sport@mail.ru", "geo_quality": "exact", "geo_kind": "house"}}, {"type": "Feature", "geometry": {"type": "Point", "coordinates": [38.467666, 55.9107]}, "properties": {"region": "Московская область", "city": "Ногинск", "name": "ЖФК Спасатель", "address": "Ногинск улица Чапаева 15", "girls_total": 48, "phone": "89645532615", "email": "huba1331@icloud.com", "geo_quality": "exact", "geo_kind": "house"}}, {"type": "Feature", "geometry": {"type": "Point", "coordinates": [37.84614, 55.660465]}, "properties": {"region": "Московская область", "city": "Котельники", "name": "МАУ ДО СШ \"Котельники\"", "address": "мкр. Белая Дача, д. 8А", "girls_total": 20, "phone": "74955508066", "email": "ktln_sport@mosreg.ru", "geo_quality": "exact", "geo_kind": "house"}}, {"type": "Feature", "geometry": {"type": "Point", "coordinates": [37.690111, 55.871602]}, "properties": {"region": "Москва", "city": "Москва", "name": "СШ \"Юность Москвы\" по женскому футболу", "address": "Коминтерна, 15", "girls_total": 321, "phone": "79067777817", "email": "spafor@yandex.ru", "geo_quality": "exact", "geo_kind": "house"}}, {"type": "Feature", "geometry": {"type": "Point", "coordinates": [37.342086, 55.89132]}, "properties": {"region": "Москва", "city": "Москва", "name": "АНО ДО \"Футбольная академия \"Динамо\" им.Л.И. Яшина", "address": "ул. Соколовское вл. 8", "girls_total": 129, "phone": "89998568471", "email": "women@fcdynamo.ru", "geo_quality": "exact", "geo_kind": "house"}}, {"type": "Feature", "geometry": {"type": "Point", "coordinates": [37.604852, 55.630192]}, "properties": {"region": "Москва", "city": "Москва", "name": "ГБНОУ \"Спортивный интернат \"Чертаново\" Москомспорта", "address": "ул. Чертановская д.7 корп. 3", "girls_total": 209, "phone": "84953116212", "email": "chertanovo@mossport.ru", "geo_quality": "exact", "geo_kind": "house"}}, {"type": "Feature", "geometry": {"type": "Point", "coordinates": [37.453028, 55.789922]}, "properties": {"region": "Москва", "city": "Москва", "name": "ЖФК ЦСКА", "address": "Улица живописная дом 21", "girls_total": 98, "phone": "89055902753", "email": "89055902753@mail.ru", "geo_quality": "exact", "geo_kind": "house"}}, {"type": "Feature", "geometry": {"type": "Point", "coordinates": [37.686841, 55.701115]}, "properties": {"region": "Москва", "city": "Москва", "name": "Футбольная академия «Адреналин» Москва", "address": "2й Южнопортовый проезд, 19к1", "girls_total": 44, "phone": "9771153277", "email": "adrenalinefc@mail.ru", "geo_quality": "exact", "geo_kind": "house"}}, {"type": "Feature", "geometry": {"type": "Point", "coordinates": [37.655616, 55.716696]}, "properties": {"region": "Москва", "city": "Москва", "name": "АО ФК Торпедо Москва", "address": "ул. Восточная, д. 4А", "girls_total": 57, "phone": "7 495 620 45 04", "email": "afademy@torpedo.ru", "geo_quality": "exact", "geo_kind": "house"}}, {"type": "Feature", "geometry": {"type": "Point", "coordinates": [37.742348, 55.806155]}, "properties": {"region": "Москва", "city": "Москва", "name": "ЧОУ ЦОС \"ЛОКОМОТИВ\"", "address": "Москва, Большая Черкизовская, д.125, стр. 2 и 9", "girls_total": 135, "phone": "84991610312", "email": "school@fclm.ru", "geo_quality": "number", "geo_kind": "house"}}, {"type": "Feature", "geometry": {"type": "Point", "coordinates": [37.685916, 55.882444]}, "properties": {"region": "Москва", "city": "Лосиноостровский район", "name": "Чемпионика", "address": "Тайнинская, 20", "girls_total": 77, "phone": "7 (996) 865-98-06", "email": "Valeria.kaichenkova@championika.ru", "geo_quality": "exact", "geo_kind": "house"}}, {"type": "Feature", "geometry": {"type": "Point", "coordinates": [37.225997, 55.986984]}, "properties": {"region": "Москва", "city": "г. Зеленоград", "name": "ГБУ ДО МКСШ \"Зеленоград\"", "address": "Озёрная аллея, д. 6", "girls_total": 59, "phone": "84997311617", "email": "zelenograd@mossport.ru", "geo_quality": "exact", "geo_kind": "house"}}, {"type": "Feature", "geometry": {"type": "Point", "coordinates": [37.353387, 55.788641]}, "properties": {"region": "Москва", "city": "Москва", "name": "ГБУ ДО \"Московская футбольная академия\"\"", "address": "г. Москва, ул. Василия Ботылева, дом 41", "girls_total": 375, "phone": "7 (499) 264-41-74", "email": "mfa@mossport.ru", "geo_quality": "exact", "geo_kind": "house"}}, {"type": "Feature", "geometry": {"type": "Point", "coordinates": [37.521408, 55.532666]}, "properties": {"region": "Москва", "city": "Москва", "name": "Футбольная Академия \"Авангард\" Москва", "address": "Москва, ул. Южнобутовская, дом 101", "girls_total": 49, "phone": "7 (495) 215 20 27", "email": "info@avangard-football.ru", "geo_quality": "exact", "geo_kind": "house"}}, {"type": "Feature", "geometry": {"type": "Point", "coordinates": [37.395886, 55.645812]}, "properties": {"region": "Москва", "city": "Москва", "name": "Спортивный клуб «Надежда»", "address": "119620 г. Москва, ул. Авиаторов, 12 - 178", "girls_total": 143, "phone": "89160537333", "email": "16volcano@mail.ru", "geo_quality": "number", "geo_kind": "house"}}, {"type": "Feature", "geometry": {"type": "Point", "coordinates": [37.493497, 55.567535]}, "properties": {"region": "Москва", "city": "ТиНАО", "name": "ГБОУ Школа № 2070", "address": "ул. Липовый парк 5а", "girls_total": 37, "phone": "89262723122", "email": "belkin@sch2070.ru", "geo_quality": "exact", "geo_kind": "house"}}, {"type": "Feature", "geometry": {"type": "Point", "coordinates": [37.697001, 55.807086]}, "properties": {"region": "Москва", "city": "Москва", "name": "Академия «Спартак»", "address": "Малый Олений переулок, д. 23 стр. 5", "girls_total": 79, "phone": "8-495-530-95-00", "email": "school@spartak.com", "geo_quality": "exact", "geo_kind": "house"}}, {"type": "Feature", "geometry": {"type": "Point", "coordinates": [43.518992, 56.104009]}, "properties": {"region": "Нижегородская область", "city": "Богородск", "name": "МБУ ДО \"\"ДЮЦ\" Спартак\"", "address": "ул. Ленина, 222а.", "girls_total": 120, "phone": "88317021754", "email": "spartak.zam@yandex.ru", "geo_quality": "exact", "geo_kind": "house"}}, {"type": "Feature", "geometry": {"type": "Point", "coordinates": [43.794532, 56.200388]}, "properties": {"region": "Нижегородская область", "city": "Нижний Новгород", "name": "ШСК ( Пари Почти Машины )", "address": "Земляничная 1А", "girls_total": 18, "phone": "7 (831) 269-17-18", "email": "schooln114.moy.su", "geo_quality": "exact", "geo_kind": "house"}}, {"type": "Feature", "geometry": {"type": "Point", "coordinates": [44.903466, 55.564938]}, "properties": {"region": "Нижегородская область", "city": "Бутурлино", "name": "МБУ ДО \"Спортивная школа\"", "address": "Нижегородская школа, р.п. Бутурлино, ул. Милицейская, 11", "girls_total": 43, "phone": "88317254273", "email": "sportbytyrlino@mail.ru", "geo_quality": "exact", "geo_kind": "house"}}, {"type": "Feature", "geometry": {"type": "Point", "coordinates": [44.122794, 55.191346]}, "properties": {"region": "Нижегородская область", "city": "р.п. Шатки", "name": "МАУ ДО \"ФОК в р.п. шатки нижегородской области\"", "address": "ул. Советская, д. 25.", "girls_total": 43, "phone": "7 (83190) 4-32-40", "email": "atlant.fok@mail.ru", "geo_quality": "exact", "geo_kind": "house"}}, {"type": "Feature", "geometry": {"type": "Point", "coordinates": [43.107491, 55.239538]}, "properties": {"region": "Нижегородская область", "city": "Ардатов", "name": "МБОУ ДО ДЮЦ", "address": "ул.Ленина д.65", "girls_total": 36, "phone": "88317950141", "email": "dyussh_ardatov@mail.ru", "geo_quality": "exact", "geo_kind": "house"}}, {"type": "Feature", "geometry": {"type": "Point", "coordinates": [43.468138, 56.227965]}, "properties": {"region": "Нижегородская область", "city": "Дзержинск", "name": "Муниципальное бюджетное учреждение дополнительного образования \"Спортивная школа \"Физкультурно-оздоровительный комплекс \"ОКА\"", "address": "Набережная Окская, дом 5 А", "girls_total": 18, "phone": "8-8313-28-60-74", "email": "info@fok-oka.ru", "geo_quality": "exact", "geo_kind": "house"}}, {"type": "Feature", "geometry": {"type": "Point", "coordinates": [43.8897, 56.266052]}, "properties": {"region": "Нижегородская область", "city": "Нижний Новгород", "name": "ГБОУ ДО СШОР № 8 по футболу", "address": "ул. Дьяконова, д. 31", "girls_total": 87, "phone": "(831)253-67-25", "email": "sdusshor8@mail.ru", "geo_quality": "exact", "geo_kind": "house"}}, {"type": "Feature", "geometry": {"type": "Point", "coordinates": [44.015212, 56.31548]}, "properties": {"region": "Нижегородская область", "city": "Нижний Новгород", "name": "Профессиональный клуб по мини-футболу \"Торпедо\"", "address": "гор. Нижний Новгород, ул. Белинского, 55А", "girls_total": 80, "phone": "8-910-798-33-14", "email": "mfc@orgkhim.com", "geo_quality": "exact", "geo_kind": "house"}}, {"type": "Feature", "geometry": {"type": "Point", "coordinates": [42.182999, 55.318578]}, "properties": {"region": "Нижегородская область", "city": "Выкса", "name": "СК МЕТАЛЛУРГ", "address": "Россия, Нижегородская область, г. Выкса, Красная площадь, 29.", "girls_total": 100, "phone": "8 (83177) 3-42-22", "email": "metallurgvyksa@yandex.ru", "geo_quality": "exact", "geo_kind": "house"}}, {"type": "Feature", "geometry": {"type": "Point", "coordinates": [43.946275, 56.337816]}, "properties": {"region": "Нижегородская область", "city": "Нижний Новгород", "name": "Пари НН", "address": "Карла Маркса 23в", "girls_total": 172, "phone": "89202948364", "email": "tima.loginov.2014@mail.ru", "geo_quality": "number", "geo_kind": "house"}}, {"type": "Feature", "geometry": {"type": "Point", "coordinates": [43.851081, 56.24457]}, "properties": {"region": "Нижегородская область", "city": "Нижний Новгород", "name": "ЦДТ Автозаводского района", "address": "Ул. Школьная, д.4", "girls_total": 135, "phone": "2814220", "email": "cdt avt nn@mail.52gov.ru", "geo_quality": "exact", "geo_kind": "house"}}, {"type": "Feature", "geometry": {"type": "Point", "coordinates": [42.498083, 55.417526]}, "properties": {"region": "Нижегородская область", "city": "Кулебаки", "name": "МБУ ДО \"СШ \"ФОК в г.Кулебаки НО\"", "address": "улица Серова дом 59", "girls_total": 42, "phone": "8(83176)5-92-32", "email": "fok.kulebaki@yandex.ru", "geo_quality": "exact", "geo_kind": "house"}}, {"type": "Feature", "geometry": {"type": "Point", "coordinates": [46.866761, 57.767481]}, "properties": {"region": "Нижегородская область", "city": "П. Тоншанво", "name": "Факел", "address": "Нижегородская область, Тоншаевский р. н, р. п Шайгино, ул. Вокзальная, д55Г", "girls_total": 20, "phone": "89081616251", "email": "Kochkis@bk.ru", "geo_quality": "exact", "geo_kind": "house"}}, {"type": "Feature", "geometry": {"type": "Point", "coordinates": [44.047372, 56.363843]}, "properties": {"region": "Нижегородская область", "city": "Бор", "name": "МАУ ДО «СШ «Спартак»", "address": "Город Бор, улица Спортивная, д. 1а", "girls_total": 45, "phone": "83159-(91854),", "email": "spartakvibor@mail.ru", "geo_quality": "exact", "geo_kind": "house"}}, {"type": "Feature", "geometry": {"type": "Point", "coordinates": [44.209904, 55.531896]}, "properties": {"region": "Нижегородская область", "city": "Вад", "name": "Муниципальное казенное учреждение культуры и спорта «Культурно – спортивное объединение Вадского  муниципального округа  Нижегородской области»", "address": "606380 Нижегородская область,  с. Вад,  ул. 50 лет Октября, д. 16", "girls_total": 41, "phone": "89524447977", "email": "vadsport52@mail.ru", "geo_quality": "exact", "geo_kind": "house"}}, {"type": "Feature", "geometry": {"type": "Point", "coordinates": [43.454376, 56.2283]}, "properties": {"region": "Нижегородская область", "city": "Дзержинск", "name": "ЖМФК \"Виктория\"", "address": "Нижегородская обл, г Дзержинск", "girls_total": 20, "phone": "89524596209", "email": "citom@yandex.ru", "geo_quality": "other", "geo_kind": "railway_station"}}, {"type": "Feature", "geometry": {"type": "Point", "coordinates": [43.918428, 56.285723]}, "properties": {"region": "Нижегородская область", "city": "Нижний Новгород", "name": "НИЖЕГОРОДОЧКА", "address": "Нижний Новгород, ул. Дружбы 50", "girls_total": 25, "phone": "89028817974", "email": "nikita.malyshev.96@internet.ru", "geo_quality": "exact", "geo_kind": "house"}}, {"type": "Feature", "geometry": {"type": "Point", "coordinates": [44.556169, 55.602952]}, "properties": {"region": "Нижегородская область", "city": "Перевоз", "name": "Мау фок чайка", "address": "Ул  северная  14", "girls_total": 35, "phone": "88314852202", "email": "Fok_chaika@mail.ru", "geo_quality": "exact", "geo_kind": "house"}}, {"type": "Feature", "geometry": {"type": "Point", "coordinates": [44.187383, 56.153944]}, "properties": {"region": "Нижегородская область", "city": "Кстово", "name": "МАУ ДО \"СШ № 1\"", "address": "Нижегородская область, Кстовский муниципальный округ, город Кстово, улица Кстовская, дом 1", "girls_total": 8, "phone": "88314521013", "email": "sport-school1@yandex.ru", "geo_quality": "exact", "geo_kind": "house"}}, {"type": "Feature", "geometry": {"type": "Point", "coordinates": [59.879316, 51.03366]}, "properties": {"region": "Оренбургская область", "city": "Асбест", "name": "Муниципальное бюджетное учреждение дополнительного образования «Спортивная школа «Асбест» муниципального образования Ясненский городской округ", "address": "Оренбургская область, г.Ясный, ул. Ленина, д. 1", "girls_total": 17, "phone": "83536821868", "email": "skasbest@yandex.ru", "geo_quality": "exact", "geo_kind": "house"}}, {"type": "Feature", "geometry": {"type": "Point", "coordinates": [55.218318, 51.784343]}, "properties": {"region": "Оренбургская область", "city": "Оренбург", "name": "Фк Оренбург", "address": "Газпромовская 65", "girls_total": 132, "phone": "8 (3532) 44-00-11", "email": "info@fcorenburg.ru", "geo_quality": "exact", "geo_kind": "house"}}, {"type": "Feature", "geometry": {"type": "Point", "coordinates": [52.239387, 52.805404]}, "properties": {"region": "Оренбургская область", "city": "Бузулук", "name": "ЖФК Бузулучанка", "address": "Фрунзе 100", "girls_total": 50, "phone": "8 (35342) 5-36-12", "email": "school4-53@inbox.ru", "geo_quality": "exact", "geo_kind": "house"}}, {"type": "Feature", "geometry": {"type": "Point", "coordinates": [54.802478, 51.788956]}, "properties": {"region": "Оренбургская область", "city": "Село Черноречье", "name": "Спортивный Футбольный Клуб \"Виктория\"", "address": "Ул. Степная 32", "girls_total": 29, "phone": "89010976858", "email": "nice.charyev@mail.ru", "geo_quality": "exact", "geo_kind": "house"}}, {"type": "Feature", "geometry": {"type": "Point", "coordinates": [57.350011, 51.478018]}, "properties": {"region": "Оренбургская область", "city": "Кувандык", "name": "АНК « Центр развития футбола «", "address": "Оренбургская 23", "girls_total": 19, "phone": "79877701222", "email": "ruslanrm1991@gmail.com", "geo_quality": "exact", "geo_kind": "house"}}, {"type": "Feature", "geometry": {"type": "Point", "coordinates": [44.975242, 53.185098]}, "properties": {"region": "Пензенская область", "city": "Пенза", "name": "Лагуна-Уор", "address": "Попова 38Ак1", "girls_total": 60, "phone": "89870724033", "email": "mfclaguna@yandex.ru", "geo_quality": "exact", "geo_kind": "house"}}, {"type": "Feature", "geometry": {"type": "Point", "coordinates": [44.973202, 53.212226]}, "properties": {"region": "Пензенская область", "city": "г. Пенза", "name": "МБУ ДЮСШ 8 г. Пенза", "address": "440011, г. Пенза, ул. 8 Марта, д. 13", "girls_total": 30, "phone": "8412200758", "email": "dush8pnz@yandex.ru", "geo_quality": "exact", "geo_kind": "house"}}, {"type": "Feature", "geometry": {"type": "Point", "coordinates": [44.97959, 53.227856]}, "properties": {"region": "Пензенская область", "city": "Пенза", "name": "МАУ ЦРФ \"Зенит\" г. Пензы", "address": "ул. Г.Титова, 3а", "girls_total": 4, "phone": "1990-09-20 00:00:00", "email": "cduf_zenitpnz@mail.ru", "geo_quality": "exact", "geo_kind": "house"}}, {"type": "Feature", "geometry": {"type": "Point", "coordinates": [46.096698, 53.717091]}, "properties": {"region": "Пензенская область", "city": "Никольск", "name": "МБУДО \"ДЮСШ\" Никольского района", "address": "г.Никольск, Пензенской области, ул.Театральная, дом 14", "girls_total": 6, "phone": "88416542301", "email": "dush_89@mail.ru", "geo_quality": "exact", "geo_kind": "house"}}, {"type": "Feature", "geometry": {"type": "Point", "coordinates": [43.717331, 52.469532]}, "properties": {"region": "Пензенская область", "city": "р.п. Беково", "name": "МБОУ ДО ДЮСШ р.п. Беково", "address": "442940, Пензенская область, Бековский район, р.п. Беково, ул. Первомайская, 56В", "girls_total": 64, "phone": "89061590157", "email": "snsaushkin@ranbler.ru", "geo_quality": "exact", "geo_kind": "house"}}, {"type": "Feature", "geometry": {"type": "Point", "coordinates": [43.70064, 53.883702]}, "properties": {"region": "Пензенская область", "city": "Наровчат", "name": "МАОУ ДО ДЮСШ с. Наровчат имени А. В. Водопьянова", "address": "Пензенская обл, с. Наровчат., ул. Партизанская, 12", "girls_total": 53, "phone": "88416321502", "email": "narsport@yandex.ru", "geo_quality": "exact", "geo_kind": "house"}}, {"type": "Feature", "geometry": {"type": "Point", "coordinates": [42.607354, 53.49413]}, "properties": {"region": "Пензенская область", "city": "Земетчино", "name": "МАОУ ДО ДЮСШ Земетчинского района", "address": "Пензенская область, р.п.Земетчино, ул.Кирова, 86", "girls_total": 16, "phone": "88415521642", "email": "zem-sport@mail.ru", "geo_quality": "exact", "geo_kind": "house"}}, {"type": "Feature", "geometry": {"type": "Point", "coordinates": [44.973562, 53.185416]}, "properties": {"region": "Пензенская область", "city": "Пенза", "name": "Центр подготовки футболистов Д.Градиленко", "address": "г Пенза ул.Попова 38А", "girls_total": 30, "phone": "79273750168", "email": "footballcentrgradilenko@yandex.ru", "geo_quality": "exact", "geo_kind": "house"}}, {"type": "Feature", "geometry": {"type": "Point", "coordinates": [48.373209, 55.861398]}, "properties": {"region": "Республика Марий Эл", "city": "Волжск", "name": "ШФ АО МЦБК (при СШ Волжска)", "address": "Ленина 33", "girls_total": 20, "phone": "89033260233", "email": "makiz80@mail.ru", "geo_quality": "exact", "geo_kind": "house"}}, {"type": "Feature", "geometry": {"type": "Point", "coordinates": [48.323236, 56.149772]}, "properties": {"region": "Республика Марий Эл", "city": "Красногорский", "name": "Футбольный клуб \"Восход\"", "address": "425090,РМЭ,Красногорский, Центральная 1 а", "girls_total": 35, "phone": "89613770801", "email": "ivan.sazonov13@yandex.ru", "geo_quality": "exact", "geo_kind": "house"}}, {"type": "Feature", "geometry": {"type": "Point", "coordinates": [47.810406, 56.636184]}, "properties": {"region": "Республика Марий Эл", "city": "ПГТ. Медведево", "name": "АНО ДСК «Витязь»", "address": "Сергея Жилина Д.6", "girls_total": 24, "phone": "89991456208", "email": "nastichka_14@mail.ru", "geo_quality": "exact", "geo_kind": "house"}}, {"type": "Feature", "geometry": {"type": "Point", "coordinates": [46.293699, 56.288636]}, "properties": {"region": "Республика Марий Эл", "city": "п.г.т Юрино", "name": "МБУДО  \"Юринский центр по развитию физкультуры и спорта\"", "address": "РМЭ, Юринский район,п.г.т Юрино,Ул Центральный Проспект,5", "girls_total": 15, "phone": "89024315814", "email": "yurino-d@yandex.ru", "geo_quality": "exact", "geo_kind": "house"}}, {"type": "Feature", "geometry": {"type": "Point", "coordinates": [47.947722, 56.642179]}, "properties": {"region": "Республика Марий Эл", "city": "Йошкар-Ола", "name": "ШСК \"Луч \"", "address": "Ул. 8 марта 19, г. Йошкар-Ола, Республика Марий Эл", "girls_total": 34, "phone": "79177036694", "email": "Vovan7373@list.ru", "geo_quality": "exact", "geo_kind": "house"}}, {"type": "Feature", "geometry": {"type": "Point", "coordinates": [47.916254, 56.639436]}, "properties": {"region": "Республика Марий Эл", "city": "Йошкар-Ола", "name": "ГБУ ДО Республики Марий Эл \"СШ по футболу и регби\"", "address": "Воскресенский проспект, 5", "girls_total": 28, "phone": "89061394635", "email": "sshorfr12@mail.ru", "geo_quality": "exact", "geo_kind": "house"}}, {"type": "Feature", "geometry": {"type": "Point", "coordinates": [49.394081, 56.707051]}, "properties": {"region": "Республика Марий Эл", "city": "п. Параньга", "name": "ДО «Параньгинский Центр по развитию физкультуры и спорта»", "address": "Параньгинский район, п. Параньга, ул. Колхозная, д. 21«а»", "girls_total": 29, "phone": "8(83639)4-33-10", "email": "par.crfs@mari-el.gov.ru", "geo_quality": "exact", "geo_kind": "house"}}, {"type": "Feature", "geometry": {"type": "Point", "coordinates": [47.802689, 56.635199]}, "properties": {"region": "Республика Марий Эл", "city": "Пгт Медведево", "name": "Медведево", "address": "Советская 31 а", "girls_total": 50, "phone": "89278760404", "email": "Wfc.Medvedevo@mail.ru", "geo_quality": "exact", "geo_kind": "house"}}, {"type": "Feature", "geometry": {"type": "Point", "coordinates": [47.899357, 56.640164]}, "properties": {"region": "Республика Марий Эл", "city": "г.Йошкар-Ола", "name": "Дворец спорта \"Олимп\"", "address": "Р.Марий Эл,, г. Йошкар-Ола, ул.красноармеская,14", "girls_total": 40, "phone": "89961163862", "email": "dush_olimp @ mail . ru", "geo_quality": "exact", "geo_kind": "house"}}, {"type": "Feature", "geometry": {"type": "Point", "coordinates": [44.95785, 54.076635]}, "properties": {"region": "Республика Мордовия", "city": "Рузаевка", "name": "МБУ ДО \"ДЮСШ\" Рузаевского муниципального района", "address": "Фабричный пер., д.17А", "girls_total": 54, "phone": "8345122545", "email": "dush-ruz@yandex.ru", "geo_quality": "exact", "geo_kind": "house"}}, {"type": "Feature", "geometry": {"type": "Point", "coordinates": [45.194251, 54.177226]}, "properties": {"region": "Республика Мордовия", "city": "Саранск", "name": "Некоммерческое партнёрство \"Межрегиональный центр подготовки юных футболистов Приволжье \"Мордовия\"", "address": "ул.Красная, 22", "girls_total": 49, "phone": "8(834)28-30-70 , доб 323", "email": "centermordovia@mail.ru", "geo_quality": "exact", "geo_kind": "house"}}, {"type": "Feature", "geometry": {"type": "Point", "coordinates": [45.284415, 54.677812]}, "properties": {"region": "Республика Мордовия", "city": "село Рождествено", "name": "МБУДО \"Ичалковская ДЮСШ\"", "address": "РМ, Ичалковский район, село Рождествено, ул. Перомайская, 139", "girls_total": 32, "phone": "88 3433 2-16-63", "email": "ichalcki.sportshkola@yandex.ru", "geo_quality": "exact", "geo_kind": "house"}}, {"type": "Feature", "geometry": {"type": "Point", "coordinates": [46.23627, 54.848898]}, "properties": {"region": "Республика Мордовия", "city": "г.Ардатов", "name": "ГАУ РМ \"РСТЦ \"Старт\"", "address": "г.", "girls_total": 20, "phone": "89271849559", "email": "alex-elizarov82@yandex.ru", "geo_quality": "other", "geo_kind": "locality"}}, {"type": "Feature", "geometry": {"type": "Point", "coordinates": [46.23627, 54.848898]}, "properties": {"region": "Республика Мордовия", "city": "Ардатов", "name": "МБУ ДО \"Ардатовская ДЮСШ\"", "address": "Р. Мордовия Ардатовский район г. Ардатов пер. Л. Тольсого 2/3", "girls_total": 101, "phone": "89271775278", "email": "ardatovsport@mail.ru", "geo_quality": "other", "geo_kind": "locality"}}, {"type": "Feature", "geometry": {"type": "Point", "coordinates": [43.915643, 54.029926]}, "properties": {"region": "Республика Мордовия", "city": "Ковылкино", "name": "МБУ ДО \"ДЮСШ им. А.И. Тюрева\" Ковылкинского муниципального района", "address": "ул. Королева д.2", "girls_total": 65, "phone": "88345342227", "email": "kov-sportshkola@yandex.ru", "geo_quality": "exact", "geo_kind": "house"}}, {"type": "Feature", "geometry": {"type": "Point", "coordinates": [42.720156, 54.768729]}, "properties": {"region": "Республика Мордовия", "city": "село. Теньгушево", "name": "ДО ФК Факел", "address": "село. Теньгушево", "girls_total": 43, "phone": "89625956251", "email": "snn73sport@mail.ru", "geo_quality": "other", "geo_kind": "locality"}}, {"type": "Feature", "geometry": {"type": "Point", "coordinates": [43.781749, 54.43325]}, "properties": {"region": "Республика Мордовия", "city": "Краснослободск", "name": "МБУ ДО \"ДЮСШ\"", "address": "Кировский пер., д.10", "girls_total": 51, "phone": "8(83443)24513", "email": "sport-k@inbox.ru", "geo_quality": "exact", "geo_kind": "house"}}, {"type": "Feature", "geometry": {"type": "Point", "coordinates": [43.877509, 54.617811]}, "properties": {"region": "Республика Мордовия", "city": "Ельники", "name": "ДЮСШ МБООДОДО \"Центр  дополнительного образования дляго", "address": "Ельниковский район,с.Ельники,пер.Южный д7", "girls_total": 10, "phone": "88344426243", "email": "elnikovskaya.diussh@mail.ru", "geo_quality": "exact", "geo_kind": "house"}}, {"type": "Feature", "geometry": {"type": "Point", "coordinates": [44.366256, 53.865637]}, "properties": {"region": "Республика Мордовия", "city": "Инсар", "name": "МБУ ДО \"Инсарская СШ\"", "address": "Семашко 13", "girls_total": 10, "phone": "89026674675", "email": "insar.djussh@yandex.ru", "geo_quality": "exact", "geo_kind": "house"}}, {"type": "Feature", "geometry": {"type": "Point", "coordinates": [49.154627, 55.794345]}, "properties": {"region": "Республика Татарстан (Татарстан)", "city": "Казань", "name": "МБУ ДО «СШОР «ФСО «Трудовые резервы» г. Казани", "address": "ул. Н.Ершова, 7", "girls_total": 96, "phone": "88432362485", "email": "shvahit@mail.ru", "geo_quality": "exact", "geo_kind": "house"}}, {"type": "Feature", "geometry": {"type": "Point", "coordinates": [51.810217, 55.624007]}, "properties": {"region": "Республика Татарстан (Татарстан)", "city": "г. Нижнекамск", "name": "ДЮСШ ООО \" ФК \" Нефтехимик \"", "address": "ул. Тукая, д. 23", "girls_total": 101, "phone": "88(555) 43-13-85", "email": "diussh - 2@yandex.ru", "geo_quality": "exact", "geo_kind": "house"}}, {"type": "Feature", "geometry": {"type": "Point", "coordinates": [47.569253, 54.726621]}, "properties": {"region": "Республика Татарстан (Татарстан)", "city": "Старое Дрожжаное", "name": "МБО ДО \"Спортивная школа\" ДМР РТ", "address": "ул. Дзержинского, дом 36А", "girls_total": 5, "phone": "89963365074", "email": "drozhdyussh@rambler.ru", "geo_quality": "exact", "geo_kind": "house"}}, {"type": "Feature", "geometry": {"type": "Point", "coordinates": [52.301793, 55.679945]}, "properties": {"region": "Республика Татарстан (Татарстан)", "city": "Набережные Челны", "name": "Муниципальное автономное учреждение \"Спортивная школа \"Строитель\"", "address": "Республика Татарстан (Татарстан), г.о. город Набережные Челны, г Набережные Челны, наб им Габдуллы Тукая, д. 16", "girls_total": 128, "phone": "88552700080", "email": "stadion79@list.ru", "geo_quality": "exact", "geo_kind": "house"}}, {"type": "Feature", "geometry": {"type": "Point", "coordinates": [48.487196, 55.847083]}, "properties": {"region": "Республика Татарстан (Татарстан)", "city": "Зеленодольск", "name": "Муниципальное бюджетное учреждение дополнительного образования \"Спортивная школа №3\" Зеленодольского муниципального района Республики Татарстан", "address": "РТ, г.Зеленодольск, ул. Ленина, д.5", "girls_total": 109, "phone": "8(84371)5-65-71", "email": "dyush3@yandex.ru", "geo_quality": "exact", "geo_kind": "house"}}, {"type": "Feature", "geometry": {"type": "Point", "coordinates": [49.087478, 55.863581]}, "properties": {"region": "Республика Татарстан (Татарстан)", "city": "Казань", "name": "МБУ ДО «СШОР ФСО Авиатор» г.Казани (СП СШ «Мотор»)", "address": "Ленинградская,26", "girls_total": 30, "phone": "89518923080", "email": "guzellapo4ka@mail.ru", "geo_quality": "exact", "geo_kind": "house"}}, {"type": "Feature", "geometry": {"type": "Point", "coordinates": [49.230786, 55.790028]}, "properties": {"region": "Республика Татарстан (Татарстан)", "city": "Казань", "name": "СШ по футболу \"Мирас\"", "address": "ул.Джаудата Файзи, 2а", "girls_total": 184, "phone": "8(843)237-60-91", "email": "sdushor14@mail.ru", "geo_quality": "exact", "geo_kind": "house"}}, {"type": "Feature", "geometry": {"type": "Point", "coordinates": [49.153459, 55.840083]}, "properties": {"region": "Республика Татарстан (Татарстан)", "city": "Казань", "name": "МБУ ДО СШ \"Савиново\" г.Казани", "address": "ул. Адоратского, д.36 Д", "girls_total": 15, "phone": "89393614791", "email": "savinovofootball@gmail.com", "geo_quality": "exact", "geo_kind": "house"}}, {"type": "Feature", "geometry": {"type": "Point", "coordinates": [49.097709, 55.79679]}, "properties": {"region": "Республика Татарстан (Татарстан)", "city": "Казань", "name": "МБОУ ДО \"СШОР \"ФСО \"ЦЕНТРАЛЬНЫЙ\" структурное подразделение СШ \"Максат\"", "address": "420111, г Казань, ул Ташаяк, зд 2А", "girls_total": 50, "phone": "8(843)229-19-30", "email": "privolzhanin@mail.ru", "geo_quality": "exact", "geo_kind": "house"}}, {"type": "Feature", "geometry": {"type": "Point", "coordinates": [49.054168, 55.814831]}, "properties": {"region": "Республика Татарстан (Татарстан)", "city": "Казань", "name": "Муниципальное бюджетное учреждение дополнительного образования \"Спортивная школа \"Физкультурно-спортивное объединение \"Стрела\"\" г. Казани", "address": "ул. Степана Халтурина дом 3", "girls_total": 18, "phone": "(843) 237-74-03", "email": "strela.basko@gmail.com", "geo_quality": "exact", "geo_kind": "house"}}, {"type": "Feature", "geometry": {"type": "Point", "coordinates": [49.022916, 54.981717]}, "properties": {"region": "Республика Татарстан (Татарстан)", "city": "г. Болгар", "name": "МБОУ ДО \"Детский оздоровительно-образовательный центр\"й", "address": "Пионерская д. 40А", "girls_total": 10, "phone": "89274180898", "email": "spoklub@yandex.ru", "geo_quality": "exact", "geo_kind": "house"}}, {"type": "Feature", "geometry": {"type": "Point", "coordinates": [52.003175, 55.764642]}, "properties": {"region": "Республика Татарстан (Татарстан)", "city": "Елабуга", "name": "Олимп", "address": "Тази Гиззата 29", "girls_total": 15, "phone": "79279339598", "email": "Olymp.elabuga@mail.ru", "geo_quality": "exact", "geo_kind": "house"}}, {"type": "Feature", "geometry": {"type": "Point", "coordinates": [52.29785, 55.886231]}, "properties": {"region": "Республика Татарстан (Татарстан)", "city": "Менделеевск", "name": "Муниципальное бюджетное учреждение дополнительного образования спортивная школа по футболу и легкой атлетике Менделеевского муниципального района", "address": "Менделеевск, ул.Чоловоского, зд.7", "girls_total": 22, "phone": "89872365051", "email": "stadionmendel@bk.ru", "geo_quality": "exact", "geo_kind": "house"}}, {"type": "Feature", "geometry": {"type": "Point", "coordinates": [50.803565, 54.845969]}, "properties": {"region": "Республика Татарстан (Татарстан)", "city": "Пгт. Аксубаево", "name": "МБУ ДО \"Спортивная школа\" Аксубаевского муниципального района Республики Татарстан", "address": "ОТ, Аксубаевский район, пгт. Аксубаево, ул. Ленина, д. 13", "girls_total": 12, "phone": "8(84344)2-80-20", "email": "dysch1@mai.ru", "geo_quality": "exact", "geo_kind": "house"}}, {"type": "Feature", "geometry": {"type": "Point", "coordinates": [52.398057, 55.75553]}, "properties": {"region": "Республика Татарстан (Татарстан)", "city": "Набережные Челны", "name": "Детско-юношеский центр - 14", "address": "Проспект Чулман 88", "girls_total": 15, "phone": "89274732984", "email": "dyc_chelny@mail.ru", "geo_quality": "exact", "geo_kind": "house"}}, {"type": "Feature", "geometry": {"type": "Point", "coordinates": [49.084935, 55.854956]}, "properties": {"region": "Республика Татарстан (Татарстан)", "city": "г. Казань", "name": "Академия Футбольный клуб \"Рубин\"", "address": "420036, г. Казань,  ул. Копылова, д. 2", "girls_total": 102, "phone": "7(843)571-17-24", "email": "school@rubin-kazan.ru", "geo_quality": "exact", "geo_kind": "house"}}, {"type": "Feature", "geometry": {"type": "Point", "coordinates": [52.292083, 54.907268]}, "properties": {"region": "Республика Татарстан (Татарстан)", "city": "Альметьевск", "name": "МАУ ДО \"Спортивная школа по футболу\" АМР РТ", "address": "ул. Белоглазова д. 62 а", "girls_total": 65, "phone": "8(8553) 32-55-22", "email": "almfootball@mail.ru", "geo_quality": "exact", "geo_kind": "house"}}, {"type": "Feature", "geometry": {"type": "Point", "coordinates": [49.108741, 55.834416]}, "properties": {"region": "Республика Татарстан (Татарстан)", "city": "Казань", "name": "Рубин Юниор", "address": "Ул. Чуйкова 8к2", "girls_total": 20, "phone": "79956878334", "email": "vasev.beast95@mail.ru", "geo_quality": "exact", "geo_kind": "house"}}, {"type": "Feature", "geometry": {"type": "Point", "coordinates": [49.116062, 55.785448]}, "properties": {"region": "Республика Татарстан (Татарстан)", "city": "Казань", "name": "Академия Футбольного мастерства \"Спарта\" г. Казань", "address": "г. Казань ул. Лево-Булачная дом 56", "girls_total": 10, "phone": "89297292627", "email": "afm-sparta@yandex.ru", "geo_quality": "exact", "geo_kind": "house"}}, {"type": "Feature", "geometry": {"type": "Point", "coordinates": [51.421265, 55.715515]}, "properties": {"region": "Республика Татарстан (Татарстан)", "city": "Мамадыш", "name": "МБОУ ДО \"Дом детства и юношества\" Мамадышского муниципального района РТ", "address": "РТ, г. Мамадыш, ул. Советская, д. 2Б", "girls_total": 40, "phone": "89178682793", "email": "Mouddu@mail.ru", "geo_quality": "number", "geo_kind": "house"}}, {"type": "Feature", "geometry": {"type": "Point", "coordinates": [49.120814, 55.77073]}, "properties": {"region": "Республика Татарстан (Татарстан)", "city": "Казань", "name": "ДФК Сокол", "address": "Сары Садыковой 61", "girls_total": 15, "phone": "89172278553", "email": "Sokol_kids@mail.ru", "geo_quality": "exact", "geo_kind": "house"}}, {"type": "Feature", "geometry": {"type": "Point", "coordinates": [52.415825, 55.730968]}, "properties": {"region": "Республика Татарстан (Татарстан)", "city": "Набережные Челны", "name": "Некоммерческое партнерство \"СПОРТИВНЫЙ КЛУБ \"КАМАЗ\"", "address": "пр-т Московский, д 104", "girls_total": 40, "phone": "88552588701", "email": "cpf-fckamaz@yandex.ru", "geo_quality": "exact", "geo_kind": "house"}}, {"type": "Feature", "geometry": {"type": "Point", "coordinates": [50.919106, 56.180928]}, "properties": {"region": "Республика Татарстан (Татарстан)", "city": "Кукмор", "name": "Академия Интер", "address": "Республика Татарстан, г.Кукмор", "girls_total": 7, "phone": "89393300478", "email": "udms.kukmor@mail.ru", "geo_quality": "other", "geo_kind": "railway_station"}}, {"type": "Feature", "geometry": {"type": "Point", "coordinates": [49.260807, 55.192343]}, "properties": {"region": "Республика Татарстан (Татарстан)", "city": "Камское-Устье", "name": "МБУ ДО «Спортивная школа» Камско-Устьинского муниципального района Республики Татарстан", "address": "422820 Республика Татарстан, Камско-Устьинский муниципальный район, пгт Камское Устье, ул.Комарова д.24", "girls_total": 3, "phone": "7(843)-772-33-46", "email": "sportschool2009@rambler.ru", "geo_quality": "exact", "geo_kind": "house"}}, {"type": "Feature", "geometry": {"type": "Point", "coordinates": [49.440165, 56.247931]}, "properties": {"region": "Республика Татарстан (Татарстан)", "city": "Большая Атня", "name": "Муниципальное бюджетное учреждение дополнительного образования «Спортивная школа» Атнинского муниципального района Республики Татарстан", "address": "Атнинский район, село Большая Атня, улица Советская, дом 2 Б", "girls_total": 10, "phone": "88436921021", "email": "Sport.atnya@mail.ru", "geo_quality": "exact", "geo_kind": "house"}}, {"type": "Feature", "geometry": {"type": "Point", "coordinates": [53.172396, 56.873401]}, "properties": {"region": "Республика Удмуртия", "city": "Ижевск", "name": "УдГАУ", "address": "ул.Студенческая,11", "girls_total": 16, "phone": "89199152465", "email": "ohotnikova94@mail.ru", "geo_quality": "exact", "geo_kind": "house"}}, {"type": "Feature", "geometry": {"type": "Point", "coordinates": [53.872138, 57.306027]}, "properties": {"region": "Республика Удмуртия", "city": "с. Шаркан", "name": "МАУ ДО \"ШССШОР им. Ю.Р. Шкляева\"", "address": "ул. Коммунальная, 7", "girls_total": 3, "phone": "8(34136)3-32-69", "email": "shark_olimp@mail.ru", "geo_quality": "exact", "geo_kind": "house"}}, {"type": "Feature", "geometry": {"type": "Point", "coordinates": [53.226968, 56.854434]}, "properties": {"region": "Республика Удмуртия", "city": "Ижевск", "name": "АУ ДО УР \"СШОР по футболу \"Зенит-Ижевск\"", "address": "ул. Зенитная, д.5А", "girls_total": 20, "phone": "7 (3412)724700", "email": "fc.zenit-izhevsk@yandex.ru", "geo_quality": "exact", "geo_kind": "house"}}, {"type": "Feature", "geometry": {"type": "Point", "coordinates": [53.172396, 56.873401]}, "properties": {"region": "Республика Удмуртия", "city": "Ижевск", "name": "ФГБОУ Удмуртский государственный аграрный университет", "address": "426069, Россия, ПФО, Удмуртская Республика, г.Ижевск,ул.Студенческая, 11", "girls_total": 21, "phone": "8 (3412) 58-99-47", "email": "kafiedraf@gmail.com", "geo_quality": "exact", "geo_kind": "house"}}, {"type": "Feature", "geometry": {"type": "Point", "coordinates": [52.654885, 58.140953]}, "properties": {"region": "Республика Удмуртия", "city": "Глазов", "name": "Прогресс", "address": "Кирова 38", "girls_total": 21, "phone": "83414135922", "email": "mu_skk_progress@mail.ru", "geo_quality": "exact", "geo_kind": "house"}}, {"type": "Feature", "geometry": {"type": "Point", "coordinates": [52.197176, 56.451056]}, "properties": {"region": "Республика Удмуртия", "city": "МОЖГА", "name": "ФК Дубитель", "address": "Ул. Устюжанина 30", "girls_total": 36, "phone": "89828365964", "email": "shkola9@mozhga.udm.ru", "geo_quality": "exact", "geo_kind": "house"}}, {"type": "Feature", "geometry": {"type": "Point", "coordinates": [53.775012, 56.445842]}, "properties": {"region": "Республика Удмуртия", "city": "Сарапул", "name": "«Спортивная школа управления образования»", "address": "ул. Фурманова, д. 1 а", "girls_total": 30, "phone": "83514739500", "email": "shkola24@sarap-obr.udmr.ru", "geo_quality": "exact", "geo_kind": "house"}}, {"type": "Feature", "geometry": {"type": "Point", "coordinates": [53.249776, 56.880592]}, "properties": {"region": "Республика Удмуртия", "city": "Ижевск", "name": "МБУ ДО СШОР Юный Динамовец", "address": "9 Января 231а", "girls_total": 44, "phone": "89225297109", "email": "chk115@gmail.com", "geo_quality": "exact", "geo_kind": "house"}}, {"type": "Feature", "geometry": {"type": "Point", "coordinates": [53.128944, 56.350402]}, "properties": {"region": "Республика Удмуртия", "city": "Киясово", "name": "МКОУДО \"Киясовская спортивная школа\"", "address": "УР, Киясовский район, с. Киясово, ул. Юбилейная, д.38А", "girls_total": 21, "phone": "89914562320", "email": "ksvducch@gmail.com", "geo_quality": "number", "geo_kind": "house"}}, {"type": "Feature", "geometry": {"type": "Point", "coordinates": [54.006814, 57.050004]}, "properties": {"region": "Республика Удмуртия", "city": "Воткинск", "name": "АНО ФШ Феникс", "address": "Ул. 1905г, 17", "girls_total": 4, "phone": "89127567648", "email": "zu_kos@mail.ru", "geo_quality": "exact", "geo_kind": "house"}}, {"type": "Feature", "geometry": {"type": "Point", "coordinates": [53.779612, 56.422355]}, "properties": {"region": "Республика Удмуртия", "city": "Сарапульский район с. Сигаево", "name": "Сигаевская", "address": "Ул. Советская, 58", "girls_total": 14, "phone": "89199004056", "email": "88-eka@mail.ru", "geo_quality": "exact", "geo_kind": "house"}}, {"type": "Feature", "geometry": {"type": "Point", "coordinates": [54.19855, 56.265522]}, "properties": {"region": "Республика Удмуртия", "city": "Камбарка", "name": "МБОУ ДО \"Камбарская СШ\"", "address": "г. Камбарка, ул. К. Маркса, д.71", "girls_total": 4, "phone": "8(34153)3-09-98", "email": "kamich86@yandex.ru", "geo_quality": "exact", "geo_kind": "house"}}, {"type": "Feature", "geometry": {"type": "Point", "coordinates": [47.707593, 56.103241]}, "properties": {"region": "Республика Чувашия", "city": "Мариинский Посад", "name": "АУ ДО\"СШ им. Николаевой\"", "address": "г. Мариинский Посад ул. Николаева 91В", "girls_total": 40, "phone": "89379410425", "email": "fsk-mariinsky@mail.ru", "geo_quality": "exact", "geo_kind": "house"}}, {"type": "Feature", "geometry": {"type": "Point", "coordinates": [47.772569, 55.512531]}, "properties": {"region": "Республика Чувашия", "city": "с.Янтиково", "name": "СШ Аль", "address": "с.Янтиково, пр.Ленина, 22Б", "girls_total": 30, "phone": "89278542137", "email": "yan-duz@mail.ru", "geo_quality": "exact", "geo_kind": "house"}}, {"type": "Feature", "geometry": {"type": "Point", "coordinates": [47.244126, 56.136226]}, "properties": {"region": "Республика Чувашия", "city": "г. Чебоксары", "name": "МБУДО \"СШ \"Энергия\" г. Чебоксары", "address": "ул. Ленинградская 34", "girls_total": 27, "phone": "7(8352) 50-00-10", "email": "dussh_energiya@mail.ru", "geo_quality": "exact", "geo_kind": "house"}}, {"type": "Feature", "geometry": {"type": "Point", "coordinates": [47.266134, 56.122324]}, "properties": {"region": "Республика Чувашия", "city": "г. Чебоксары", "name": "Бюджетное учреждение Чувашской Республики дополнительного образования «Спортивная школа по футболу»", "address": "428003, Чувашская Республика, г. Чебоксары, ул. Чапаева, 17", "girls_total": 68, "phone": "8 (8352) 57-11-87", "email": "football@rchuv.ru", "geo_quality": "exact", "geo_kind": "house"}}, {"type": "Feature", "geometry": {"type": "Point", "coordinates": [47.948728, 55.68331]}, "properties": {"region": "Республика Чувашия", "city": "пгт.Урмары", "name": "АОУ ДОД Урмарская ДЮСШ", "address": "429400, Чувашская Республика, пос.Урмары, ул.Мира, д.5", "girls_total": 37, "phone": "8(83544) 2-13-15", "email": "urm_oksi@chtts.ru", "geo_quality": "exact", "geo_kind": "house"}}, {"type": "Feature", "geometry": {"type": "Point", "coordinates": [47.866416, 55.089496]}, "properties": {"region": "Республика Чувашия", "city": "с.Янтиково", "name": "СШ \"Аль\"", "address": "с.Янтиково", "girls_total": 18, "phone": "89656857987", "email": "yan-duz@mail.ru", "geo_quality": "other", "geo_kind": "locality"}}, {"type": "Feature", "geometry": {"type": "Point", "coordinates": [47.465506, 56.116302]}, "properties": {"region": "Республика Чувашия", "city": "Новочебоксарск", "name": "ДЮСШ №1", "address": "Пионерская1", "girls_total": 53, "phone": "88352770642", "email": "dussh1@yandex.ru", "geo_quality": "exact", "geo_kind": "house"}}, {"type": "Feature", "geometry": {"type": "Point", "coordinates": [47.312523, 56.125681]}, "properties": {"region": "Республика Чувашия", "city": "Чебоксары", "name": "АУ ФСК \"Восток\"", "address": "г. Чебоксары, улица Машиностроителей, 1А", "girls_total": 17, "phone": "89170668928", "email": "fsk_vostok@mail.ru", "geo_quality": "exact", "geo_kind": "house"}}, {"type": "Feature", "geometry": {"type": "Point", "coordinates": [47.249533, 56.140765]}, "properties": {"region": "Республика Чувашия", "city": "Чебоксары", "name": "МБУДО \"СШ \"Спартак\" г. Чебоксары", "address": "428000 г. Чебоксары, ул. К. Маркса, д.36", "girls_total": 21, "phone": "89196657451", "email": "gcheb_fizcult@cap.ru", "geo_quality": "exact", "geo_kind": "house"}}, {"type": "Feature", "geometry": {"type": "Point", "coordinates": [49.268317, 53.504227]}, "properties": {"region": "Самарская область", "city": "Тольятти", "name": "МБУДО СШОР №12 \"Лада\" г.о. Тольятти", "address": "Самарская обл. г.Тольятти , Революционная,80", "girls_total": 113, "phone": "88482580952", "email": "ladafootball@yandex.ru", "geo_quality": "exact", "geo_kind": "house"}}, {"type": "Feature", "geometry": {"type": "Point", "coordinates": [50.076891, 53.184165]}, "properties": {"region": "Самарская область", "city": "Самара", "name": "СГСПУ", "address": "М. Горького 65\\67", "girls_total": 16, "phone": "89272005311", "email": "rectorat@sgspu.ru", "geo_quality": "number", "geo_kind": "house"}}, {"type": "Feature", "geometry": {"type": "Point", "coordinates": [50.318277, 53.396565]}, "properties": {"region": "Самарская область", "city": "Самара", "name": "АНО ДО \"Академия \"Крылья Советов\"", "address": "г. Самара, ул. Строителей, 1", "girls_total": 62, "phone": "78463311757", "email": "academy@kc-academy.ru", "geo_quality": "exact", "geo_kind": "house"}}, {"type": "Feature", "geometry": {"type": "Point", "coordinates": [49.241404, 53.510653]}, "properties": {"region": "Самарская область", "city": "поселок Приморский", "name": "АНО ДО СШ \"Акрон-Академия Коноплева\"", "address": "Самарская обл., пос. Приморский, ул. Советская 23Б", "girls_total": 54, "phone": "8 (8482) 55-91-15, 8 (8482) 55-91-16", "email": "academia_uk@mail.ru", "geo_quality": "exact", "geo_kind": "house"}}, {"type": "Feature", "geometry": {"type": "Point", "coordinates": [50.236081, 53.278412]}, "properties": {"region": "Самарская область", "city": "Самара", "name": "ГАУ ДО СО «СШОР № 1»", "address": "443031, г. Самара, ул. Демократическая, 57", "girls_total": 32, "phone": "7 (846) 334-53-00", "email": "sportolimp63@yandex.ru", "geo_quality": "exact", "geo_kind": "house"}}, {"type": "Feature", "geometry": {"type": "Point", "coordinates": [49.714376, 52.987071]}, "properties": {"region": "Самарская область", "city": "Чапаевск", "name": "ФК «Луч»", "address": "Железнодорожная 14а", "girls_total": 20, "phone": "79024291513", "email": "sportchap@mail.ru", "geo_quality": "exact", "geo_kind": "house"}}, {"type": "Feature", "geometry": {"type": "Point", "coordinates": [50.634394, 53.22101]}, "properties": {"region": "Самарская область", "city": "Кинель", "name": "Смена-Кинель", "address": "г.Самара, проспект Карла Маркса 4е, кв19", "girls_total": 4, "phone": "79277448319", "email": "ks-d1man@yandex.ru", "geo_quality": "other", "geo_kind": "locality"}}, {"type": "Feature", "geometry": {"type": "Point", "coordinates": [48.410336, 53.19399]}, "properties": {"region": "Самарская область", "city": "Сызранский район, пос. Варламово", "name": "ДЮСШ пос. Варламово", "address": "Самарская область, Сызранский район, пос. Варламово,Советская ул.,12", "girls_total": 25, "phone": "7(8464) 99-80-66", "email": "zu_varlam_sch@63edu.ru", "geo_quality": "exact", "geo_kind": "house"}}, {"type": "Feature", "geometry": {"type": "Point", "coordinates": [49.444181, 52.564075]}, "properties": {"region": "Самарская область", "city": "Село Марьевка", "name": "ДФК  Марьевка", "address": "Самарская область, Пестравский район, с.Марьевка, ул.Пенькова, дом 31", "girls_total": 67, "phone": "8920000000000000000000", "email": "kornilov.m.a@mail.ru", "geo_quality": "exact", "geo_kind": "house"}}, {"type": "Feature", "geometry": {"type": "Point", "coordinates": [49.391422, 53.559107]}, "properties": {"region": "Самарская область", "city": "Тольятти", "name": "Триумф-НЕОН", "address": "Школьная 15 кв2", "girls_total": 45, "phone": "89277864001", "email": "vasilev_sch@mail.ru", "geo_quality": "exact", "geo_kind": "house"}}, {"type": "Feature", "geometry": {"type": "Point", "coordinates": [50.228131, 53.262402]}, "properties": {"region": "Самарская область", "city": "Самара", "name": "АНО ФК \"Виктория\"", "address": "Ул. Зои Космодемьянской 17А", "girls_total": 14, "phone": "89277048140", "email": "fk_", "geo_quality": "exact", "geo_kind": "house"}}, {"type": "Feature", "geometry": {"type": "Point", "coordinates": [49.956759, 52.404138]}, "properties": {"region": "Самарская область", "city": "село Пестравка", "name": "ДЮСШ с.Пестравка", "address": "ул.Крайнюковская д.75", "girls_total": 25, "phone": "89272963288", "email": "boss.vova.smirnov.1988@mail.ru", "geo_quality": "exact", "geo_kind": "house"}}, {"type": "Feature", "geometry": {"type": "Point", "coordinates": [49.501125, 53.401521]}, "properties": {"region": "Самарская область", "city": "Жигулевск", "name": "ФШ «Акрон»", "address": "ул. Мира, 3, стадион Кристалл", "girls_total": 0, "phone": "7 (906) 339-59-12", "email": "gladkov_ma@fcakron.com", "geo_quality": "exact", "geo_kind": "house"}}, {"type": "Feature", "geometry": {"type": "Point", "coordinates": [49.437802, 53.550244]}, "properties": {"region": "Самарская область", "city": "Тольятти", "name": "ФК Бомббар", "address": "Тупиковый 18", "girls_total": 16, "phone": "89967244034", "email": "bombbar9@gmail.com", "geo_quality": "exact", "geo_kind": "house"}}, {"type": "Feature", "geometry": {"type": "Point", "coordinates": [50.34431, 53.452932]}, "properties": {"region": "Самарская область", "city": "Село Резяпкино Клявлинский район Самарская область", "name": "ДФК Маяк", "address": "Село Ст. Резяпкино Клявлинский район  ул. Молодежная 11", "girls_total": 48, "phone": "89277076354", "email": "Резяпкино. Ру", "geo_quality": "other", "geo_kind": "province"}}, {"type": "Feature", "geometry": {"type": "Point", "coordinates": [45.949114, 51.502362]}, "properties": {"region": "Саратовская область", "city": "Саратов", "name": "МАУ ДО \"СШОР №14 \"Волга\"", "address": "площадь им. Орджоникидзе Г.К. 1", "girls_total": 86, "phone": "8852961123", "email": "volga.14@mail.ru", "geo_quality": "street", "geo_kind": "street"}}, {"type": "Feature", "geometry": {"type": "Point", "coordinates": [46.014431, 51.555116]}, "properties": {"region": "Саратовская область", "city": "Саратов", "name": "Удар", "address": "Ул.Крайняя 127Г", "girls_total": 13, "phone": "9869866206", "email": "dfsh.udar23@mail.ru", "geo_quality": "exact", "geo_kind": "house"}}, {"type": "Feature", "geometry": {"type": "Point", "coordinates": [49.710612, 51.197676]}, "properties": {"region": "Саратовская область", "city": "р.п Озинки", "name": "МБУ ДО СШ р.п Озинки", "address": "Саратовская область р.п Озинки ул.Молождежная д 4", "girls_total": 80, "phone": "79372660119", "email": "sportozinki@yandex.ru", "geo_quality": "exact", "geo_kind": "house"}}, {"type": "Feature", "geometry": {"type": "Point", "coordinates": [45.999447, 51.539047]}, "properties": {"region": "Саратовская область", "city": "Саратов", "name": "ГАУСО ДО СШОР по футболу Сокол", "address": "Аткарская 29, стр.1", "girls_total": 14, "phone": "88452418763", "email": "fk-ss@yandex.ru", "geo_quality": "exact", "geo_kind": "house"}}, {"type": "Feature", "geometry": {"type": "Point", "coordinates": [46.626812, 52.46793]}, "properties": {"region": "Саратовская область", "city": "Балтай", "name": "МБУ ДО ДЮСШ Балтайского муниципального района Саратовской области", "address": "Саратовская область, Балтайский район, с. Балтай, ул. Ленина, д. 61", "girls_total": 35, "phone": "89878313012", "email": "bolbashev.99@yandex.ru", "geo_quality": "exact", "geo_kind": "house"}}, {"type": "Feature", "geometry": {"type": "Point", "coordinates": [46.002555, 51.529158]}, "properties": {"region": "Саратовская область", "city": "Саратов", "name": "Центр подготовки футболистов Д.Градиленко", "address": "Астраханская 88", "girls_total": 70, "phone": "7(8452)93-60-70", "email": "footballcentrgradilenko@yandex.ru", "geo_quality": "exact", "geo_kind": "house"}}, {"type": "Feature", "geometry": {"type": "Point", "coordinates": [47.773368, 52.014783]}, "properties": {"region": "Саратовская область", "city": "Балаково", "name": "МАУ ДО \"Спортивная школа \"Балаково\"", "address": "Набережная 50 лет ВЛКСМ 5А", "girls_total": 25, "phone": "88453 62-77-99", "email": "shkolabalakovo@mail.ru", "geo_quality": "exact", "geo_kind": "house"}}, {"type": "Feature", "geometry": {"type": "Point", "coordinates": [47.524849, 51.236581]}, "properties": {"region": "Саратовская область", "city": "р.п. Мокроус", "name": "МУ ДО СШ р.п. Мокроус Федоровского района", "address": "413410 Саратовская область Федоровский район р.п. Мокроус ул. Пионерская 17", "girls_total": 13, "phone": "7 845 655-04-55", "email": "chernobuk69@mail.ru", "geo_quality": "exact", "geo_kind": "house"}}, {"type": "Feature", "geometry": {"type": "Point", "coordinates": [45.999079, 51.540021]}, "properties": {"region": "Саратовская область", "city": "Саратов", "name": "ЖФК Волжанка", "address": "Аткарская 29", "girls_total": 42, "phone": "88452410537", "email": "agrosport@mail.ru", "geo_quality": "exact", "geo_kind": "house"}}, {"type": "Feature", "geometry": {"type": "Point", "coordinates": [46.124052, 51.50105]}, "properties": {"region": "Саратовская область", "city": "Энгельс", "name": "СК Урожай", "address": "Энгельс", "girls_total": 10, "phone": "89053273577", "email": null, "geo_quality": "other", "geo_kind": "locality"}}, {"type": "Feature", "geometry": {"type": "Point", "coordinates": [48.801858, 52.01185]}, "properties": {"region": "Саратовская область", "city": "Пугачев", "name": "МАУДО \"СШ г.Пугачёва\"", "address": "413720, Саратовская область, г. Пугачев, ул. Бубенца,51/1", "girls_total": 17, "phone": "89271195656", "email": "dushpugachev@mail.ru", "geo_quality": "exact", "geo_kind": "house"}}, {"type": "Feature", "geometry": {"type": "Point", "coordinates": [48.395496, 54.317889]}, "properties": {"region": "Ульяновская область", "city": "Ульяновск", "name": "ОГБУДО \"СШ по футболу \"Волга\" им. Н.П. Старостина\"", "address": "ул. Гончарова, 21, стр.1", "girls_total": 116, "phone": "88422735155", "email": "volgaschool@sport.ulgov.ru", "geo_quality": "exact", "geo_kind": "house"}}, {"type": "Feature", "geometry": {"type": "Point", "coordinates": [48.581394, 54.368385]}, "properties": {"region": "Ульяновская область", "city": "Ульяновск", "name": "МБУ ДО \"СШ \"Старт \"", "address": "Ул. 40-летия Победы, д. 35", "girls_total": 35, "phone": "88422202882", "email": "ulstart@mail.ru", "geo_quality": "exact", "geo_kind": "house"}}, {"type": "Feature", "geometry": {"type": "Point", "coordinates": [48.323766, 54.25433]}, "properties": {"region": "Ульяновская область", "city": "Ульяновск", "name": "Платон-Волга", "address": "ул. Варейкиса 22а", "girls_total": 11, "phone": "89876395777", "email": "Mihasj89@mail.ru", "geo_quality": "exact", "geo_kind": "house"}}, {"type": "Feature", "geometry": {"type": "Point", "coordinates": [49.564106, 54.229354]}, "properties": {"region": "Ульяновская область", "city": "Димитровград", "name": "МБУ ДО СШ \"ЛАДА\"", "address": "пр. Димитрова, д. 14а", "girls_total": 22, "phone": "88423531301", "email": "lada.dimitrovgrad@mail.ru", "geo_quality": "exact", "geo_kind": "house"}}, {"type": "Feature", "geometry": {"type": "Point", "coordinates": [48.157479, 54.598731]}, "properties": {"region": "Ульяновская область", "city": "Р.п. Цильна", "name": "ДЮСШ Цильнинский район", "address": "Ул.О.Кошевого д3", "girls_total": 20, "phone": "89084841036", "email": "Dushcilna@mail.ru", "geo_quality": "number", "geo_kind": "house"}}, {"type": "Feature", "geometry": {"type": "Point", "coordinates": [48.373802, 54.364535]}, "properties": {"region": "Ульяновская область", "city": "Ульяновск", "name": "Детский футбольный клуб «Погода в доме»", "address": "г. Ульяновск, пер.Уютный 8.", "girls_total": 25, "phone": "7 (951) 097-20-29", "email": "a.usacheva00@gmail.com", "geo_quality": "exact", "geo_kind": "house"}}, {"type": "Feature", "geometry": {"type": "Point", "coordinates": [47.753542, 53.152251]}, "properties": {"region": "Ульяновская область", "city": "рп Новоспасское", "name": "Ассоциация партнеров \"Футбольный клуб \"Нефтяник\" команда \"Нефтяник\"", "address": "433870 Ульяновская обл,. рп Новоспасское, ул. Терешковой, д. 3А", "girls_total": 35, "phone": "79278105575", "email": "abdulin.a@mail.ru", "geo_quality": "number", "geo_kind": "house"}}, {"type": "Feature", "geometry": {"type": "Point", "coordinates": [48.283961, 54.279612]}, "properties": {"region": "Ульяновская область", "city": "Ульяновск", "name": "СК \"Гелиос\"", "address": "Улица Камышинская, дом 51", "girls_total": 14, "phone": "1961-12-27 00:00:00", "email": "sch61@mo73.ru", "geo_quality": "exact", "geo_kind": "house"}}, {"type": "Feature", "geometry": {"type": "Point", "coordinates": [48.790863, 53.962615]}, "properties": {"region": "Ульяновская область", "city": "Сенгилей", "name": "СК Сенгилея", "address": "433380, Ульяновская область, г. Сенгилей, площадь 1 Мая, д. 1", "girls_total": 15, "phone": "8(84233) 2-11-84, 89378859388", "email": "sengschool_1@mail.ru", "geo_quality": "exact", "geo_kind": "house"}}, {"type": "Feature", "geometry": {"type": "Point", "coordinates": [46.763428, 53.753997]}, "properties": {"region": "Ульяновская область", "city": "Базарный Сызган", "name": "МКОУ Базарносызганская СШ №1", "address": "ул.Советская 86", "girls_total": 15, "phone": "8(84240)21355, 89378731556", "email": "bazschool@yandex.ru", "geo_quality": "exact", "geo_kind": "house"}}, {"type": "Feature", "geometry": {"type": "Point", "coordinates": [39.843157, 64.558646]}, "properties": {"region": "Архангельская область", "city": "Северодвинск", "name": "Муниципальное автономное учреждение дополнительного образования \"Спортивная школа \"Строитель\"", "address": "ул.Профсоюзная, д.25А", "girls_total": 8, "phone": "88184566433", "email": "sport-stroitel@rambler.ru", "geo_quality": "exact", "geo_kind": "house"}}, {"type": "Feature", "geometry": {"type": "Point", "coordinates": [42.099025, 61.075751]}, "properties": {"region": "Архангельская область", "city": "Вельск", "name": "Вельская спортивная школа", "address": "г. вельс ул. Певрого Мая д.51", "girls_total": 3, "phone": "7 818 366-35-23", "email": "dushvel@yandex.ru", "geo_quality": "exact", "geo_kind": "house"}}, {"type": "Feature", "geometry": {"type": "Point", "coordinates": [40.556069, 64.555195]}, "properties": {"region": "Архангельская область", "city": "Архангельск", "name": "ДФК \"Барсы\"", "address": "Гагарина 42", "girls_total": 50, "phone": "79210883588", "email": "r.evseeff@yandex.ru", "geo_quality": "exact", "geo_kind": "house"}}, {"type": "Feature", "geometry": {"type": "Point", "coordinates": [40.681591, 64.51032]}, "properties": {"region": "Архангельская область", "city": "Архангельск", "name": "МБУ ДО СШ им. П. В. Усова", "address": "Ул. Воронина 28", "girls_total": 10, "phone": "88182688818", "email": "uk0174@mail.ru", "geo_quality": "exact", "geo_kind": "house"}}, {"type": "Feature", "geometry": {"type": "Point", "coordinates": [20.488694, 54.716091]}, "properties": {"region": "Калининградская область", "city": "Калининград", "name": "АНО ДОСШ \"ФК \"Балтика\"", "address": "236001, г. Калининград, ул.Дм.Донского 2", "girls_total": 67, "phone": null, "email": "school@fc-baltica.ru", "geo_quality": "exact", "geo_kind": "house"}}, {"type": "Feature", "geometry": {"type": "Point", "coordinates": [21.812074, 54.636235]}, "properties": {"region": "Калининградская область", "city": "Черняховск", "name": "МАУ ДО \"СШ г. Черняховска\"", "address": "ул. Калинина, 4", "girls_total": 20, "phone": "89216081107", "email": "instersport@yandex.ru", "geo_quality": "exact", "geo_kind": "house"}}, {"type": "Feature", "geometry": {"type": "Point", "coordinates": [20.453624, 54.724411]}, "properties": {"region": "Калининградская область", "city": "Калининград", "name": "МАУ ДО СШОР № 5 по футболу", "address": "пр.Мира, 134", "girls_total": 15, "phone": "67-36-60", "email": "moudodsport5@mail.ru", "geo_quality": "number", "geo_kind": "house"}},